{
  "1300921094": {
    "Nome": "ANTONIA FERNANDES GUIMARAES",
    "Codigo": "1300921094",
    "Endereco": "RUA ANTONIO XAVIER MAIA, N° 361 - FUNDOS",
    "Bairro": "PENHA",
    "Latitude": "-21.654482",
    "Longitude": "-41.75143",
    "N° HD": "A24SG0840135",
    "Categoria": "Residencial",
    "Situação Água/Esgoto": "Água - ATIVA | Esgoto - POTENCIAL",
    "Foto": "https://i.postimg.cc/nzxkRzsf/photo-163433999.jpg"
  },
  "1301884103": {
    "Nome": "AUGUSTO DA SILVA PEREIRA DOS SANTOS",
    "Codigo": "1301884103",
    "Endereco": "RUA SALOMAO GINSBURG, N° 145 - FUNDOS-A-COROAD",
    "Bairro": "VILA DOS COROADOS",
    "Latitude": "-21.634996",
    "Longitude": "-41.765812",
    "N° HD": "Y20C166565",
    "Categoria": "Residencial",
    "Situação Água/Esgoto": "Água - ATIVA | Esgoto - POTENCIAL",
    "Foto": "https://i.postimg.cc/5NXrTs94/photo-114605596.jpg"
  },
  "1300937839": {
    "Nome": "AUREODILSON MACHADO DE ASSIS",
    "Codigo": "1300937839",
    "Endereco": "RUA JUSTINO MOREIRA, N° 237",
    "Bairro": "N DIVINEIA",
    "Latitude": "-21.640296",
    "Longitude": "-41.735715",
    "N° HD": "Y20SG0893936",
    "Categoria": "Residencial",
    "Situação Água/Esgoto": "Água - ATIVA | Esgoto - POTENCIAL",
    "Foto": "https://i.postimg.cc/RVv7nF8j/photo-143404314.jpg"
  },
  "1300847580": {
    "Nome": "EDELSON FRANCISCO DE OLIVEIRA",
    "Codigo": "1300847580",
    "Endereco": "RUA PASTOR AVELINO FIGUEIREDO, N° 13 - FUNDOS",
    "Bairro": "PENHA",
    "Latitude": "-21.653393",
    "Longitude": "-41.749816",
    "N° HD": "A23SG0637626",
    "Categoria": "Residencial",
    "Situação Água/Esgoto": "Água - ATIVA | Esgoto - POTENCIAL",
    "Foto": "https://i.postimg.cc/QMcCbgKS/photo-084840028.jpg"
  },
  "1301937330": {
    "Nome": "EDELSON FRANCISCO DE OLIVEIRA",
    "Codigo": "1301937330",
    "Endereco": "RUA SETENTA, N° 2 - ANTIGO 160 - TERREO",
    "Bairro": "CHATUBA",
    "Latitude": "-21.654098",
    "Longitude": "-41.739843",
    "N° HD": "Y16C008970",
    "Categoria": "Residencial",
    "Situação Água/Esgoto": "Água - ATIVA | Esgoto - POTENCIAL",
    "Foto": "https://i.postimg.cc/yYXzvfLD/photo-125848539.jpg"
  },
  "1301642646": {
    "Nome": "ELISABETE LOPES",
    "Codigo": "1301642646",
    "Endereco": "RUA ANTONIO XAVIER MAIA, N° 86 - CASA",
    "Bairro": "PENHA",
    "Latitude": "-21.652556",
    "Longitude": "-41.749424",
    "N° HD": "A23SG0637650",
    "Categoria": "Residencial",
    "Situação Água/Esgoto": "Água - ATIVA | Esgoto - POTENCIAL",
    "Foto": "https://i.postimg.cc/HkVBVn8T/photo-085257929.jpg"
  },
  "1302463638": {
    "Nome": "FERNANDO AUGUSTO DE SOUZA PANISSET",
    "Codigo": "1302463638",
    "Endereco": "RUA JOSE DOS SANTOS, N° 58 - LT 10",
    "Bairro": "VILA DOS COROADOS",
    "Latitude": "-21.632543",
    "Longitude": "-41.767431",
    "N° HD": "Y20C153493",
    "Categoria": "Residencial",
    "Situação Água/Esgoto": "Água - ATIVA | Esgoto - POTENCIAL",
    "Foto": "https://i.postimg.cc/50nsXCgN/photo-103135282.jpg"
  },
  "1301802332": {
    "Nome": "MARIA NEUSA BARBOSA BELIENE",
    "Codigo": "1301802332",
    "Endereco": "RUA JUSTINO MOREIRA, N° 163",
    "Bairro": "N DIVINEIA",
    "Latitude": "-21.64077",
    "Longitude": "-41.735941",
    "N° HD": "A24SG0683347",
    "Categoria": "Residencial",
    "Situação Água/Esgoto": "Água - ATIVA | Esgoto - POTENCIAL",
    "Foto": "https://i.postimg.cc/MKTpfJ6W/photo-155000526-1.jpg"
  },
  "1301915354": {
    "Nome": "MICHELLE GOLANDI BARCELOS",
    "Codigo": "1301915354",
    "Endereco": "RUA JOAO BATISTA MAIA, N° 150 - CASA 2",
    "Bairro": "VILA DOS COROADOS",
    "Latitude": "-21.634294",
    "Longitude": "-41.766122",
    "N° HD": "A24BR0446775",
    "Categoria": "Residencial",
    "Situação Água/Esgoto": "Água - ATIVA | Esgoto - POTENCIAL",
    "Foto": "https://i.postimg.cc/KvG4xgks/photo-111145015-1.jpg"
  },
  "1302797032": {
    "Nome": "ROSIMAR MACIEL DA SILVA ",
    "Codigo": "1302797032",
    "Endereco": "RUA JOAO BATISTA MAIA, N° 172 - LOTE 2",
    "Bairro": "VILA DOS COROADOS",
    "Latitude": "-21.634497",
    "Longitude": "-41.766414",
    "N° HD": "A22SG0628884",
    "Categoria": "Residencial",
    "Situação Água/Esgoto": "Água - ATIVA | Esgoto - POTENCIAL",
    "Foto": "https://i.postimg.cc/mhfcyd2L/photo-111156661-2.jpg"
  },
  "1301129885": {
    "Nome": "ABEDIU MORAES VIEIRA",
    "Codigo": "1301129885",
    "Endereco": "RUA CENTRAL, N° 39 - FUNDOS",
    "Bairro": "IPUCA",
    "Latitude": "-21.639528",
    "Longitude": "-41.733882",
    "N° HD": "Y21C000552",
    "Categoria": "Residencial",
    "Situação Água/Esgoto": "Água - ATIVA | Esgoto - ATIVA",
    "Foto": "https://i.postimg.cc/9082W0Kv/photo-154517587.jpg"
  },
  "1300847090": {
    "Nome": "ABEL DE SOUZA GOMES",
    "Codigo": "1300847090",
    "Endereco": "RUA IGUALDADE, N° 590",
    "Bairro": "IGUALDADE",
    "Latitude": "-21.649659",
    "Longitude": "-41.739238",
    "N° HD": "A23SG0637795",
    "Categoria": "Residencial",
    "Situação Água/Esgoto": "Água - ATIVA | Esgoto - POTENCIAL",
    "Foto": "https://i.postimg.cc/DZN5nK5x/photo-135216247.jpg"
  },
  "1302504252": {
    "Nome": "ABEL JESUS TUPAM GARCES",
    "Codigo": "1302504252",
    "Endereco": "RUA OLGA FONSECA, N° 99 - LT 3 QD E",
    "Bairro": "PENHA",
    "Latitude": "-21.65783",
    "Longitude": "-41.754144",
    "N° HD": "Y21C120707",
    "Categoria": "Residencial",
    "Situação Água/Esgoto": "Água - ATIVA | Esgoto - POTENCIAL",
    "Foto": "https://i.postimg.cc/Y9xGzNLY/photo-151758761.jpg"
  },
  "1301218512": {
    "Nome": "ABEL PEREIRA AFONSO",
    "Codigo": "1301218512",
    "Endereco": "RUA FREI ANGELO, N° 545",
    "Bairro": "CENTRO",
    "Latitude": "-21.64909",
    "Longitude": "-41.748364",
    "N° HD": "Y20C143013",
    "Categoria": "Residencial",
    "Situação Água/Esgoto": "Água - ATIVA | Esgoto - POTENCIAL",
    "Foto": "https://i.postimg.cc/T3mPcjZ1/photo-150822582.jpg"
  },
  "1302057753": {
    "Nome": "ABEL PINTO",
    "Codigo": "1302057753",
    "Endereco": "RUA EXP EIDUARTE DA S.PONTES, N° 15",
    "Bairro": "PUREZA",
    "Latitude": "-21.597338",
    "Longitude": "-41.838908",
    "N° HD": "A24SG0634387",
    "Categoria": "Residencial",
    "Situação Água/Esgoto": "Água - ATIVA | Esgoto - POTENCIAL",
    "Foto": "https://i.postimg.cc/fRjNL8Gc/photo-104021436.jpg"
  },
  "1300848030": {
    "Nome": "ABEL RIBEIRO DE SOUZA",
    "Codigo": "1300848030",
    "Endereco": "RUA JUSTINO MOREIRA, N° 178",
    "Bairro": "N DIVINEIA",
    "Latitude": "-21.640903",
    "Longitude": "-41.73608",
    "N° HD": "Y16C008928",
    "Categoria": "Residencial",
    "Situação Água/Esgoto": "Água - CORTADA POR DÉBITO | Esgoto - ATIVA",
    "Foto": "https://i.postimg.cc/05DxF5VX/photo-122938603-1.jpg"
  },
  "1300886667": {
    "Nome": "ABEL RIBEIRO DE SOUZA",
    "Codigo": "1300886667",
    "Endereco": "RUA JUSTINO MOREIRA, N° 168 - ABEL",
    "Bairro": "N DIVINEIA",
    "Latitude": "-21.640772",
    "Longitude": "-41.735994",
    "N° HD": "",
    "Categoria": "Residencial",
    "Situação Água/Esgoto": "Água - ATIVA | Esgoto - ATIVA",
    "Foto": "https://i.postimg.cc/pTdkwBbY/photo-095721897-3.jpg"
  },
  "1300847752": {
    "Nome": "ABELARDO PACHECO SANTOS",
    "Codigo": "1300847752",
    "Endereco": "RUA CELESTINO PICANCIO ABREU, N° 7 - VILA COROADOS",
    "Bairro": "VILA DOS COROADOS",
    "Latitude": "-21.640158",
    "Longitude": "-41.765403",
    "N° HD": "A23SG0736473",
    "Categoria": "Residencial",
    "Situação Água/Esgoto": "Água - ATIVA | Esgoto - POTENCIAL",
    "Foto": "https://i.postimg.cc/XYzvKjNj/photo-095107906.jpg"
  },
  "1301432144": {
    "Nome": "ACACIO DAMASCENO PEREIRA",
    "Codigo": "1301432144",
    "Endereco": "RUA JOAO GOMES DA SILVA, N° 243 - BAIXO-COROADOS",
    "Bairro": "VILA DOS COROADOS",
    "Latitude": "-21.639254",
    "Longitude": "-41.764805",
    "N° HD": "A24BR0487447",
    "Categoria": "Residencial",
    "Situação Água/Esgoto": "Água - ATIVA | Esgoto - POTENCIAL",
    "Foto": "https://i.postimg.cc/Qt2DVCqP/photo-112458891.jpg"
  },
  "1301297302": {
    "Nome": "ACACIO SOARES DE SOUZA",
    "Codigo": "1301297302",
    "Endereco": "RUA MARIA DA CONCEICAO DIS LOPES, N° 10 - SAO FIDELIS",
    "Bairro": "SÃO VICENTE",
    "Latitude": "-21.653107",
    "Longitude": "-41.743179",
    "N° HD": "A22SG0629103",
    "Categoria": "Residencial",
    "Situação Água/Esgoto": "Água - ATIVA | Esgoto - POTENCIAL",
    "Foto": "https://i.postimg.cc/mDjmP5RH/photo-100744075-1.jpg"
  },
  "1302458464": {
    "Nome": "ACELMO SANTANA DE SOUZA",
    "Codigo": "1302458464",
    "Endereco": "RUA JEANY BIANCHINE MALAFAIA, N° 20",
    "Bairro": "MONTESE",
    "Latitude": "-21.6519",
    "Longitude": "-41.739532",
    "N° HD": "Y21C120701",
    "Categoria": "Residencial",
    "Situação Água/Esgoto": "Água - ATIVA | Esgoto - POTENCIAL",
    "Foto": "https://i.postimg.cc/05LVbD1Z/photo-120505577.jpg"
  },
  "1302458465": {
    "Nome": "ACELMO SANTANA DE SOUZA",
    "Codigo": "1302458465",
    "Endereco": "RUA JEANY BIANCHINE MALAFAIA, N° 22 - NOF",
    "Bairro": "MONTESE",
    "Latitude": "-21.651901",
    "Longitude": "-41.73957",
    "N° HD": "Y21C120693",
    "Categoria": "Residencial",
    "Situação Água/Esgoto": "Água - ATIVA | Esgoto - POTENCIAL",
    "Foto": "https://i.postimg.cc/X7SgVW9z/photo-085548109.jpg"
  },
  "1301656297": {
    "Nome": "ACELMO SANTANA DE SOUZA",
    "Codigo": "1301656297",
    "Endereco": "RUA TEN VICTOR B COELHO, N° 187",
    "Bairro": "MONTESE",
    "Latitude": "-21.652101",
    "Longitude": "-41.739516",
    "N° HD": "A23SG0530981",
    "Categoria": "Residencial",
    "Situação Água/Esgoto": "Água - ATIVA | Esgoto - POTENCIAL",
    "Foto": "https://i.postimg.cc/bY3zPYXz/photo-100407118.jpg"
  },
  "1300847248": {
    "Nome": "ACIL D DE CARVALHO",
    "Codigo": "1300847248",
    "Endereco": "RUA FRANCISCO MARIANO ROSA, N° 52 - CARECA",
    "Bairro": "CARECAS",
    "Latitude": "-21.655339",
    "Longitude": "-41.747467",
    "N° HD": "A22SG0629192",
    "Categoria": "Residencial",
    "Situação Água/Esgoto": "Água - ATIVA | Esgoto - POTENCIAL",
    "Foto": "https://i.postimg.cc/tTqLvP4F/photo-090215295.jpg"
  },
  "1302820832": {
    "Nome": "ACIR BOTELHO JUNIOR",
    "Codigo": "1302820832",
    "Endereco": "RUA LEONTINA GUIMARAES, N° 84 - APARTAMENTO 102",
    "Bairro": "PENHA",
    "Latitude": "-21.652954",
    "Longitude": "-41.752725",
    "N° HD": "A23SG0725824",
    "Categoria": "Residencial",
    "Situação Água/Esgoto": "Água - ATIVA | Esgoto - POTENCIAL",
    "Foto": "https://i.postimg.cc/cL7kqHjh/photo-124936033.jpg"
  },
  "1302054196": {
    "Nome": "ACIR BOTELHO JUNIOR",
    "Codigo": "1302054196",
    "Endereco": "RUA DR JOSE FRANCISCO, N° 320 - APT 201",
    "Bairro": "CENTRO",
    "Latitude": "-21.6475",
    "Longitude": "-41.748141",
    "N° HD": "A24LM0419907",
    "Categoria": "Residencial",
    "Situação Água/Esgoto": "Água - ATIVA | Esgoto - POTENCIAL",
    "Foto": "https://i.postimg.cc/4dcB5xzp/photo-121949111.jpg"
  },
  "1301825262": {
    "Nome": "ACIR CANDIDO",
    "Codigo": "1301825262",
    "Endereco": "RUA JOSE FORMIGA, N° 7 - FUNDOS-",
    "Bairro": "CENTRO",
    "Latitude": "-21.649856",
    "Longitude": "-41.742671",
    "N° HD": "Y16C008681",
    "Categoria": "Residencial",
    "Situação Água/Esgoto": "Água - ATIVA | Esgoto - POTENCIAL",
    "Foto": "https://i.postimg.cc/7PMNYcXP/photo-120406973.jpg"
  },
  "1301788856": {
    "Nome": "ACYR ALVES DOS SANTOS",
    "Codigo": "1301788856",
    "Endereco": "RUA ALZIRA PERLIGEIRO LANHAS, N° 247 - NOVA DIVNEIA",
    "Bairro": "IPUCA",
    "Latitude": "-21.640843",
    "Longitude": "-41.734107",
    "N° HD": "A24SG0683516",
    "Categoria": "Residencial",
    "Situação Água/Esgoto": "Água - ATIVA | Esgoto - ATIVA",
    "Foto": "https://i.postimg.cc/wB8tNxTC/photo-125247479.jpg"
  },
  "1301246842": {
    "Nome": "ACYR ALVES DOS SANTOS",
    "Codigo": "1301246842",
    "Endereco": "RUA JUSTINO MOREIRA, N° 168 - ISALTINO",
    "Bairro": "N DIVINEIA",
    "Latitude": "-21.64093",
    "Longitude": "-41.736012",
    "N° HD": "A24SG0604029",
    "Categoria": "Residencial",
    "Situação Água/Esgoto": "Água - ATIVA | Esgoto - POTENCIAL",
    "Foto": "https://i.postimg.cc/t4PJ90t2/photo-094619731.jpg"
  },
  "1300847177": {
    "Nome": "ACYR ANDRE DOS SANTOS",
    "Codigo": "1300847177",
    "Endereco": "RUA BARAO DE VILA FLOR, N° 242 - BARREIRO",
    "Bairro": "BARREIRO",
    "Latitude": "-21.646741",
    "Longitude": "-41.755159",
    "N° HD": "A23SG0736264",
    "Categoria": "Residencial",
    "Situação Água/Esgoto": "Água - ATIVA | Esgoto - POTENCIAL",
    "Foto": "https://i.postimg.cc/Z5cRW82d/photo-132730932.jpg"
  },
  "1300846203": {
    "Nome": "ACYR QUEIROZ MARTINS",
    "Codigo": "1300846203",
    "Endereco": "RUA BADY JOSE RIFAN, N° 155",
    "Bairro": "MATADOURO",
    "Latitude": "-21.649495",
    "Longitude": "-41.743899",
    "N° HD": "",
    "Categoria": "Residencial",
    "Situação Água/Esgoto": "Água - ATIVA | Esgoto - POTENCIAL",
    "Foto": "https://i.postimg.cc/sgtnZWW3/photo-14432127.jpg"
  },
  "1300943181": {
    "Nome": "ADAGELBE M PORCINO E OUTROS",
    "Codigo": "1300943181",
    "Endereco": "RUA JUSTINO MOREIRA, N° 222",
    "Bairro": "N DIVINEIA",
    "Latitude": "-21.640372",
    "Longitude": "-41.735786",
    "N° HD": "A24SG0683767",
    "Categoria": "Residencial",
    "Situação Água/Esgoto": "Água - ATIVA | Esgoto - POTENCIAL",
    "Foto": "https://i.postimg.cc/kgd66X5k/photo-135441639.jpg"
  },
  "1302114537": {
    "Nome": "ADAHIL MURY PIRES",
    "Codigo": "1302114537",
    "Endereco": "RUA ALTAMIRO MARTINS AZEVEDO, N° 42 - LOT. ZE GRANDE",
    "Bairro": "PENHA",
    "Latitude": "-21.658114",
    "Longitude": "-41.756058",
    "N° HD": "A24LM0387239",
    "Categoria": "Residencial",
    "Situação Água/Esgoto": "Água - ATIVA | Esgoto - POTENCIAL",
    "Foto": "https://i.postimg.cc/MZCYWQCw/photo-114553277.jpg"
  },
  "1301696104": {
    "Nome": "ADAILTON CHARLES PDESIDERIO",
    "Codigo": "1301696104",
    "Endereco": "RUA LADEIRA, N° 71 - SAO VICENTE",
    "Bairro": "CHATUBA",
    "Latitude": "-21.654383",
    "Longitude": "-41.739856",
    "N° HD": "A22SG0424835",
    "Categoria": "Residencial",
    "Situação Água/Esgoto": "Água - ATIVA | Esgoto - POTENCIAL",
    "Foto": "https://i.postimg.cc/Yq7mnzcv/photo-15002268.jpg"
  },
  "1302498872": {
    "Nome": "ADAILTON DE SOUZA AZEVEDO",
    "Codigo": "1302498872",
    "Endereco": "RUA DO CABO, N° 27 - LT 18 QD E",
    "Bairro": "PUREZA",
    "Latitude": "-21.596599",
    "Longitude": "-41.83867",
    "N° HD": "A23SG0531181",
    "Categoria": "Residencial",
    "Situação Água/Esgoto": "Água - ATIVA | Esgoto - POTENCIAL",
    "Foto": "https://i.postimg.cc/QNJMtLPM/photo-125548162.jpg"
  },
  "1302175698": {
    "Nome": "ADAIR ALVES DA SILVA",
    "Codigo": "1302175698",
    "Endereco": "RUA BENEVIDES PONTES, N° 75 - SOBRADO - RUA DOS COQUEIROS",
    "Bairro": "PARQUE VILA ANGELIM",
    "Latitude": "-21.602266",
    "Longitude": "-41.842715",
    "N° HD": "Y20C141755",
    "Categoria": "Residencial",
    "Situação Água/Esgoto": "Água - ATIVA | Esgoto - POTENCIAL",
    "Foto": "https://i.postimg.cc/ryDLBBkb/photo-152055478.jpg"
  },
  "1301015904": {
    "Nome": "ADAIR GOMES DA SILVA",
    "Codigo": "1301015904",
    "Endereco": "RUA JOAO BATISTA MAIA, N° 370",
    "Bairro": "VILA DOS COROADOS",
    "Latitude": "-21.635515",
    "Longitude": "-41.767797",
    "N° HD": "Y14C109994",
    "Categoria": "Residencial",
    "Situação Água/Esgoto": "Água - ATIVA | Esgoto - POTENCIAL",
    "Foto": "https://i.postimg.cc/bwsbkNcg/photo-141048572.jpg"
  },
  "1301549700": {
    "Nome": "ADAIR LIMA CARVALHO",
    "Codigo": "1301549700",
    "Endereco": "RUA LUIZ DA COSTA MACHADO, N° 748 - CASA 06 PENHA",
    "Bairro": "PENHA",
    "Latitude": "-21.651929",
    "Longitude": "-41.752268",
    "N° HD": "Y20C262170",
    "Categoria": "Residencial",
    "Situação Água/Esgoto": "Água - ATIVA | Esgoto - POTENCIAL",
    "Foto": "https://i.postimg.cc/7Zn65Fb9/photo-1053291.jpg"
  },
  "1300846866": {
    "Nome": "ADAIR LIMA CARVALHO",
    "Codigo": "1300846866",
    "Endereco": "RUA DOM LICINIO RANGEL, N° 246",
    "Bairro": "GAMBOA",
    "Latitude": "-21.645849",
    "Longitude": "-41.752776",
    "N° HD": "A23SG0735167",
    "Categoria": "Residencial",
    "Situação Água/Esgoto": "Água - ATIVA | Esgoto - POTENCIAL",
    "Foto": "https://i.postimg.cc/LsGr2XRb/photo-154545639.jpg"
  },
  "1301749108": {
    "Nome": "ADAIR LOPES DA SILVA",
    "Codigo": "1301749108",
    "Endereco": "RUA ELYSEO DA COSTA SANTOS, N° 46",
    "Bairro": "MONTESE",
    "Latitude": "-21.651452",
    "Longitude": "-41.741598",
    "N° HD": "A23SG0531007",
    "Categoria": "Residencial",
    "Situação Água/Esgoto": "Água - ATIVA | Esgoto - POTENCIAL",
    "Foto": "https://i.postimg.cc/gkBsf7GM/photo-144228523.jpg"
  },
  "1302797250": {
    "Nome": "ADALBERTO FERREIRA CAVARARO",
    "Codigo": "1302797250",
    "Endereco": "RUA DA FRATERNIDADE, N° 1 - ALTOS - ANTIGO 11",
    "Bairro": "CHATUBA",
    "Latitude": "-21.657079",
    "Longitude": "-41.739228",
    "N° HD": "A24SG0600500",
    "Categoria": "Residencial",
    "Situação Água/Esgoto": "Água - ATIVA | Esgoto - POTENCIAL",
    "Foto": "https://i.postimg.cc/XJHBpTHm/photo-113935054.jpg"
  },
  "1301460135": {
    "Nome": "ADALBERTO MAGNO LACERDA MATOS",
    "Codigo": "1301460135",
    "Endereco": "RUA CELITA PERES GOMES, N° 341 - VILA COROADOS",
    "Bairro": "VILA DOS COROADOS",
    "Latitude": "-21.634058",
    "Longitude": "-41.768141",
    "N° HD": "A22SG0424791",
    "Categoria": "Residencial",
    "Situação Água/Esgoto": "Água - ATIVA | Esgoto - POTENCIAL",
    "Foto": "https://i.postimg.cc/cJJn0xTw/photo-084109582.jpg"
  },
  "1302525407": {
    "Nome": "ADALBERTO V PANISSET JUNIOR",
    "Codigo": "1302525407",
    "Endereco": "RUA VC-PRF ERNESTO D N PENIDO, N° 239 - LT 13 QD B",
    "Bairro": "VILA DOS COROADOS",
    "Latitude": "-21.632704",
    "Longitude": "-41.766891",
    "N° HD": "Y21C089828",
    "Categoria": "Residencial",
    "Situação Água/Esgoto": "Água - ATIVA | Esgoto - POTENCIAL",
    "Foto": "https://i.postimg.cc/0j1jMPGt/photo-122631323.jpg"
  },
  "1302525408": {
    "Nome": "ADALBERTO V PANISSET JUNIOR",
    "Codigo": "1302525408",
    "Endereco": "RUA VC-PRF ERNESTO D N PENIDO, N° 239 - LT 13 QD B",
    "Bairro": "VILA DOS COROADOS",
    "Latitude": "-21.632649",
    "Longitude": "-41.766927",
    "N° HD": "Y21C068557",
    "Categoria": "Residencial",
    "Situação Água/Esgoto": "Água - ATIVA | Esgoto - POTENCIAL",
    "Foto": "https://i.postimg.cc/CxR0g9kd/photo-103516054-1.jpg"
  },
  "1301801782": {
    "Nome": "ADALBERTO VIEIRA PANISSETY",
    "Codigo": "1301801782",
    "Endereco": "RUA CELITA PERES GOMES, N° 273 - VILA COROADOS",
    "Bairro": "VILA DOS COROADOS",
    "Latitude": "-21.633607",
    "Longitude": "-41.767387",
    "N° HD": "A23SG0500045",
    "Categoria": "Residencial",
    "Situação Água/Esgoto": "Água - ATIVA | Esgoto - POTENCIAL",
    "Foto": "https://i.postimg.cc/mDyfj4fp/photo-16243602.jpg"
  },
  "1300847178": {
    "Nome": "ADALCI CARRARINE FERRARI",
    "Codigo": "1300847178",
    "Endereco": "RUA BARAO DE VILA FLOR, N° 315 - BARREIRO",
    "Bairro": "BARREIRO",
    "Latitude": "-21.646124",
    "Longitude": "-41.754741",
    "N° HD": "A24LM0386688",
    "Categoria": "Residencial",
    "Situação Água/Esgoto": "Água - ATIVA | Esgoto - POTENCIAL",
    "Foto": "https://i.postimg.cc/0Q8H8JFZ/photo-173511589.jpg"
  },
  "1301650544": {
    "Nome": "ADALSIDNEI MOTTA DA CRUZ",
    "Codigo": "1301650544",
    "Endereco": "RUA BARAO DE VILA FLOR, N° 144 - BARREIRO",
    "Bairro": "BARREIRO",
    "Latitude": "-21.645911",
    "Longitude": "-41.754528",
    "N° HD": "A24SG0683570",
    "Categoria": "Residencial",
    "Situação Água/Esgoto": "Água - ATIVA | Esgoto - POTENCIAL",
    "Foto": "https://i.postimg.cc/FzYpRbZb/photo-180332215.jpg"
  },
  "1300941391": {
    "Nome": "ADALTO GANDRA DE ASSIS",
    "Codigo": "1300941391",
    "Endereco": "RUA PROF CELESTINO, N° 85 - IPUCA",
    "Bairro": "IPUCA",
    "Latitude": "-21.640951",
    "Longitude": "-41.739907",
    "N° HD": "Y21C000698",
    "Categoria": "Residencial",
    "Situação Água/Esgoto": "Água - ATIVA | Esgoto - POTENCIAL",
    "Foto": "https://i.postimg.cc/wThfs2zF/photo-094147868.jpg"
  },
  "1302837981": {
    "Nome": "ADALTO GANDRA DE ASSIS",
    "Codigo": "1302837981",
    "Endereco": "RUA RACILPHO D MALACARME, N° 100 - .",
    "Bairro": "IPUCA",
    "Latitude": "-21.642093",
    "Longitude": "-41.734494",
    "N° HD": "A24SG0633175",
    "Categoria": "Residencial",
    "Situação Água/Esgoto": "Água - ATIVA | Esgoto - ATIVA",
    "Foto": "https://i.postimg.cc/hv0mKXF8/photo-151456452.jpg"
  },
  "1301627974": {
    "Nome": "ADAO CASSIANO DA SILVA",
    "Codigo": "1301627974",
    "Endereco": "RUA IRANY GUIMARAES, N° 591 - TRV AO LADO DO SANDRO MOTOS",
    "Bairro": "PUREZA",
    "Latitude": "-21.582999",
    "Longitude": "-41.839991",
    "N° HD": "Y20C097926",
    "Categoria": "Residencial",
    "Situação Água/Esgoto": "Água - ATIVA | Esgoto - POTENCIAL",
    "Foto": "https://i.postimg.cc/xTwQ9tRR/photo-112607985.jpg"
  },
  "1301338973": {
    "Nome": "ADAO DE OLIVEIRA SOUZA",
    "Codigo": "1301338973",
    "Endereco": "RUA JOAO BATISTA MAIA, N° 379 - A VILA COROADOS",
    "Bairro": "VILA DOS COROADOS",
    "Latitude": "-21.635615",
    "Longitude": "-41.767846",
    "N° HD": "A23SG0736402",
    "Categoria": "Residencial",
    "Situação Água/Esgoto": "Água - ATIVA | Esgoto - POTENCIAL",
    "Foto": "https://i.postimg.cc/pLbwwyWc/photo-132958581.jpg"
  },
  "1301335912": {
    "Nome": "ADAO DE OLIVEIRA SOUZA",
    "Codigo": "1301335912",
    "Endereco": "RUA JOAO BATISTA MAIA, N° 385 - COROADOS.1",
    "Bairro": "VILA DOS COROADOS",
    "Latitude": "-21.635517",
    "Longitude": "-41.767796",
    "N° HD": "A23SG0736549",
    "Categoria": "Residencial",
    "Situação Água/Esgoto": "Água - ATIVA | Esgoto - POTENCIAL",
    "Foto": "https://i.postimg.cc/RFJ5rtH8/photo-121352018.jpg"
  },
  "1300847452": {
    "Nome": "ADAO GOMES VIEIRA",
    "Codigo": "1300847452",
    "Endereco": "RUA MARIA VITIPO RAPOSO, N° 32 - ANTIGO 269",
    "Bairro": "BARAO MACAUBAS",
    "Latitude": "-21.65302",
    "Longitude": "-41.745898",
    "N° HD": "Y16L446482",
    "Categoria": "Residencial",
    "Situação Água/Esgoto": "Água - CORTADA POR DÉBITO | Esgoto - POTENCIAL",
    "Foto": "https://i.postimg.cc/02x3nFch/photo-094114626.jpg"
  },
  "1302008005": {
    "Nome": "ADAO RODRIGUES DESIDERIO",
    "Codigo": "1302008005",
    "Endereco": "RUA POETA FARIA JUNIOR, N° 267",
    "Bairro": "MONTESE",
    "Latitude": "-21.650245",
    "Longitude": "-41.739383",
    "N° HD": "A23SG0736497",
    "Categoria": "Residencial",
    "Situação Água/Esgoto": "Água - ATIVA | Esgoto - POTENCIAL",
    "Foto": "https://i.postimg.cc/xdbtn36K/photo-083449483.jpg"
  },
  "1300847256": {
    "Nome": "ADARLETE PENNA DE AGUINO",
    "Codigo": "1300847256",
    "Endereco": "RUA DOM ANTONIO DE C MAIA, N° 313",
    "Bairro": "CENTRO",
    "Latitude": "-21.650321",
    "Longitude": "-41.749297",
    "N° HD": "A23SG0735299",
    "Categoria": "Residencial",
    "Situação Água/Esgoto": "Água - ATIVA | Esgoto - POTENCIAL",
    "Foto": "https://i.postimg.cc/yYkRMYQR/photo-104528549.jpg"
  },
  "1301636483": {
    "Nome": "ADAUTO DAMASCENO DE SOUZA",
    "Codigo": "1301636483",
    "Endereco": "RUA ACIDALIA AMORIM, N° 116 - BAIRRO COROADOS",
    "Bairro": "VILA DOS COROADOS",
    "Latitude": "-21.640155",
    "Longitude": "-41.763303",
    "N° HD": "Y21C118595",
    "Categoria": "Residencial",
    "Situação Água/Esgoto": "Água - ATIVA | Esgoto - POTENCIAL",
    "Foto": "https://i.postimg.cc/wjF7MCGz/photo-144815305.jpg"
  },
  "1301698434": {
    "Nome": "ADAUTO FARIA DA SILVA",
    "Codigo": "1301698434",
    "Endereco": "RUA VOLUNTARIOS DA PATRIA, N° 672 - CENTRO",
    "Bairro": "CENTRO",
    "Latitude": "-21.6488021",
    "Longitude": "-41.7426401",
    "N° HD": "A22SG0112060",
    "Categoria": "Residencial",
    "Situação Água/Esgoto": "Água - ATIVA | Esgoto - POTENCIAL",
    "Foto": "https://i.postimg.cc/kXv5hr9S/photo-103135449.jpg"
  },
  "1300847758": {
    "Nome": "ADAUTO FARIA DA SILVA",
    "Codigo": "1300847758",
    "Endereco": "RUA MAJOR THEBANO P SANTOS, N° 45 - VILA COROADOS",
    "Bairro": "VILA DOS COROADOS",
    "Latitude": "-21.641168",
    "Longitude": "-41.762366",
    "N° HD": "A24BR0487491",
    "Categoria": "Residencial",
    "Situação Água/Esgoto": "Água - ATIVA | Esgoto - POTENCIAL",
    "Foto": "https://i.postimg.cc/yYkfLK0Q/photo-162504909.jpg"
  },
  "1301020429": {
    "Nome": "ADECIL F GRANJEAO",
    "Codigo": "1301020429",
    "Endereco": "RUA CELESTINO PICANCIO ABREU, N° 89 - VILA COROADOS",
    "Bairro": "VILA DOS COROADOS",
    "Latitude": "-21.639703",
    "Longitude": "-41.765934",
    "N° HD": "A23SG0500313",
    "Categoria": "Residencial",
    "Situação Água/Esgoto": "Água - ATIVA | Esgoto - POTENCIAL",
    "Foto": "https://i.postimg.cc/sxBp4Vb5/photo-123825384.jpg"
  },
  "1301882200": {
    "Nome": "ADECILIA SOARES DIAS",
    "Codigo": "1301882200",
    "Endereco": "RUA FREI VITORIO, N° 493 - BAIXO-CENTRO",
    "Bairro": "CENTRO",
    "Latitude": "-21.648846",
    "Longitude": "-41.74776",
    "N° HD": "",
    "Categoria": "Residencial",
    "Situação Água/Esgoto": "Água - DESLIGADA A PEDIDO | Esgoto - POTENCIAL",
    "Foto": "https://i.postimg.cc/sXLWXk1x/photo-131152168.jpg"
  },
  "1301381042": {
    "Nome": "ADECIO ANTONIO DOS S FEITOSA",
    "Codigo": "1301381042",
    "Endereco": "RUA VER ULISSES V.FERREIRA, N° 238",
    "Bairro": "VILA DOS COROADOS",
    "Latitude": "-21.634126",
    "Longitude": "-41.766848",
    "N° HD": "A23SG0637661",
    "Categoria": "Residencial",
    "Situação Água/Esgoto": "Água - ATIVA | Esgoto - POTENCIAL",
    "Foto": "https://i.postimg.cc/gkgx295W/photo-104121536.jpg"
  },
  "1300847978": {
    "Nome": "ADECIRO FERRAZ FURTADO",
    "Codigo": "1300847978",
    "Endereco": "RUA LOUREIRO, N° 253 - 978",
    "Bairro": "IPUCA",
    "Latitude": "-21.641744",
    "Longitude": "-41.741517",
    "N° HD": "Y20C141268",
    "Categoria": "Comercial",
    "Situação Água/Esgoto": "Água - ATIVA | Esgoto - POTENCIAL",
    "Foto": "https://i.postimg.cc/NjrQqWvb/photo-145941329.jpg"
  },
  "1300847926": {
    "Nome": "ADECIRO FERRAZ FURTADO",
    "Codigo": "1300847926",
    "Endereco": "RUA LOUREIRO, N° 253 - ALTOS",
    "Bairro": "IPUCA",
    "Latitude": "-21.641744",
    "Longitude": "-41.741517",
    "N° HD": "Y20C273362",
    "Categoria": "Residencial",
    "Situação Água/Esgoto": "Água - ATIVA | Esgoto - POTENCIAL",
    "Foto": "https://i.postimg.cc/NjrQqWvb/photo-145941329.jpg"
  },
  "1302838571": {
    "Nome": "ADEILCE SILVEIRA DOS SANTOS",
    "Codigo": "1302838571",
    "Endereco": "RUA LOUREIRO, N° 858 - FUNDOS 1",
    "Bairro": "IPUCA",
    "Latitude": "-21.642724",
    "Longitude": "-41.735586",
    "N° HD": "A24BR0436488",
    "Categoria": "Residencial",
    "Situação Água/Esgoto": "Água - ATIVA | Esgoto - POTENCIAL",
    "Foto": "https://i.postimg.cc/43mLSgCN/photo-095300966.jpg"
  },
  "1302625455": {
    "Nome": "ADEILTON COIMBRA SANTOS",
    "Codigo": "1302625455",
    "Endereco": "RUA RICARDO DE CASTRO MAIA, N° 38",
    "Bairro": "PENHA",
    "Latitude": "-21.658061",
    "Longitude": "-41.753721",
    "N° HD": "Y21C052391",
    "Categoria": "Residencial",
    "Situação Água/Esgoto": "Água - ATIVA | Esgoto - POTENCIAL",
    "Foto": "https://i.postimg.cc/vHnGCJsh/photo-145249969.jpg"
  },
  "1302767111": {
    "Nome": "ADEILTON SANTANA ",
    "Codigo": "1302767111",
    "Endereco": "RUA FRANCISCO PERES E PERES, N° 10 - FRENTE",
    "Bairro": "PUREZA",
    "Latitude": "-21.599625",
    "Longitude": "-41.837621",
    "N° HD": "A22SG0628833",
    "Categoria": "Residencial",
    "Situação Água/Esgoto": "Água - ATIVA | Esgoto - POTENCIAL",
    "Foto": "https://i.postimg.cc/Sx4KR0Yx/photo-125424029.jpg"
  },
  "1302114883": {
    "Nome": "ADEIR RODRIGUES NASCIMENTO",
    "Codigo": "1302114883",
    "Endereco": "RUA MARIA LOURDES SOARES DIAS, N° 165",
    "Bairro": "PENHA",
    "Latitude": "-21.653094",
    "Longitude": "-41.750862",
    "N° HD": "A24SG0839751",
    "Categoria": "Residencial",
    "Situação Água/Esgoto": "Água - ATIVA | Esgoto - POTENCIAL",
    "Foto": "https://i.postimg.cc/SRLwtPSg/photo-162620853-1.jpg"
  },
  "1301517021": {
    "Nome": "ADEIR RODRIGUES NASCIMENTO",
    "Codigo": "1301517021",
    "Endereco": "RUA JOAO ALBINO PEREIRA, N° 16 - CASA",
    "Bairro": "PENHA",
    "Latitude": "-21.651632",
    "Longitude": "-41.750524",
    "N° HD": "A24LM0419964",
    "Categoria": "Residencial",
    "Situação Água/Esgoto": "Água - ATIVA | Esgoto - POTENCIAL",
    "Foto": "https://i.postimg.cc/2SyK4yZc/photo-161313198.jpg"
  },
  "1301903758": {
    "Nome": "ADEJAIR DA SILVA AGUIAR",
    "Codigo": "1301903758",
    "Endereco": "RUA ITAMAR ABREU BELO, N° 9 - RECANTO PENHA",
    "Bairro": "DR.JUAREZ S SILVA",
    "Latitude": "-21.655027",
    "Longitude": "-41.753127",
    "N° HD": "Y20C260988",
    "Categoria": "Residencial",
    "Situação Água/Esgoto": "Água - ATIVA | Esgoto - POTENCIAL",
    "Foto": "https://i.postimg.cc/JtVzjvTK/photo-112758155.jpg"
  },
  "1301145437": {
    "Nome": "ADEJAR BATISTA DE AGUIAR",
    "Codigo": "1301145437",
    "Endereco": "RUA CECILIA FIAX CRELIER, N° 100 - FUNDOS",
    "Bairro": "PENHA",
    "Latitude": "-21.653509",
    "Longitude": "-41.751372",
    "N° HD": "A23SG0710444",
    "Categoria": "Residencial",
    "Situação Água/Esgoto": "Água - ATIVA | Esgoto - POTENCIAL",
    "Foto": "https://i.postimg.cc/Fzj7Chkw/photo-110029218-1.jpg"
  },
  "1300847435": {
    "Nome": "ADEJAR BATISTA DE AGUIAR",
    "Codigo": "1300847435",
    "Endereco": "RUA CAPITAO EDUARDO RAPOSO, N° 202",
    "Bairro": "GRUPIARIA",
    "Latitude": "-21.653643",
    "Longitude": "-41.746622",
    "N° HD": "A23SG0500051",
    "Categoria": "Residencial",
    "Situação Água/Esgoto": "Água - ATIVA | Esgoto - POTENCIAL",
    "Foto": "https://i.postimg.cc/85gGKMdP/photo-141359367.jpg"
  },
  "1300846570": {
    "Nome": "ADEJAR MESSIAS DAMASCENO",
    "Codigo": "1300846570",
    "Endereco": "RUA DR JOSE FRANCISCO, N° 454 - LOJA-LADO DIR.",
    "Bairro": "CENTRO",
    "Latitude": "-21.648379",
    "Longitude": "-41.747225",
    "N° HD": "Y20C161989",
    "Categoria": "Comercial",
    "Situação Água/Esgoto": "Água - ATIVA | Esgoto - POTENCIAL",
    "Foto": "https://i.postimg.cc/dtLfCDdW/photo-103906099.jpg"
  },
  "1301298327": {
    "Nome": "ADEJAR MESSIAS DAMASCENO",
    "Codigo": "1301298327",
    "Endereco": "RUA DR JOSE FRANCISCO, N° 454",
    "Bairro": "CENTRO",
    "Latitude": "-21.648473",
    "Longitude": "-41.747198",
    "N° HD": "Y21C052362",
    "Categoria": "Residencial",
    "Situação Água/Esgoto": "Água - ATIVA | Esgoto - POTENCIAL",
    "Foto": "https://i.postimg.cc/rm9p5f6L/photo-103906099.jpg"
  },
  "1302644280": {
    "Nome": "ADEJAR MESSIAS DAMASCENO",
    "Codigo": "1302644280",
    "Endereco": "RUA DR JOSE FRANCISCO, N° 454 - VIDRACARIA",
    "Bairro": "CENTRO",
    "Latitude": "-21.648496",
    "Longitude": "-41.747159",
    "N° HD": "A19F008454",
    "Categoria": "Comercial",
    "Situação Água/Esgoto": "Água - ATIVA | Esgoto - POTENCIAL",
    "Foto": "https://i.postimg.cc/rm9p5f6L/photo-103906099.jpg"
  },
  "1302670422": {
    "Nome": "ADEJAR MESSIAS DAMASCENO",
    "Codigo": "1302670422",
    "Endereco": "RUA DR JOSE FRANCISCO, N° 454 - APTO.101",
    "Bairro": "CENTRO",
    "Latitude": "-21.648432",
    "Longitude": "-41.747181",
    "N° HD": "Y21C052381",
    "Categoria": "Residencial",
    "Situação Água/Esgoto": "Água - ATIVA | Esgoto - POTENCIAL",
    "Foto": "https://i.postimg.cc/rm9p5f6L/photo-103906099.jpg"
  },
  "1300847399": {
    "Nome": "ADELAIDE DOS SANTOS PEREIRA",
    "Codigo": "1300847399",
    "Endereco": "RUA MARIA TEREZA, N° 71",
    "Bairro": "BARAO MACAUBAS",
    "Latitude": "-21.652995",
    "Longitude": "-41.749322",
    "N° HD": "Y20C176011",
    "Categoria": "Residencial",
    "Situação Água/Esgoto": "Água - ATIVA | Esgoto - POTENCIAL",
    "Foto": "https://i.postimg.cc/x8yKZwXp/photo-163940167.jpg"
  },
  "1302039768": {
    "Nome": "ADELAIDE MOTE RANGEL",
    "Codigo": "1302039768",
    "Endereco": "RUA MARIA FIDELINA J DE JESUS, N° 13",
    "Bairro": "PENHA",
    "Latitude": "-21.653634",
    "Longitude": "-41.753083",
    "N° HD": "A24SG0840188",
    "Categoria": "Residencial",
    "Situação Água/Esgoto": "Água - ATIVA | Esgoto - POTENCIAL",
    "Foto": "https://i.postimg.cc/CLc8fHk8/photo-13502871.jpg"
  },
  "1302760343": {
    "Nome": "ADELIA CORTES DE SOUZA",
    "Codigo": "1302760343",
    "Endereco": "RUA TRIUNFO, N° 16 - CASA",
    "Bairro": "CHATUBA",
    "Latitude": "-21.651155",
    "Longitude": "-41.74488",
    "N° HD": "",
    "Categoria": "Residencial",
    "Situação Água/Esgoto": "Água - ATIVA | Esgoto - POTENCIAL",
    "Foto": "https://i.postimg.cc/ZKnRXkv9/photo-10124215.jpg"
  },
  "1302760354": {
    "Nome": "ADELIA CORTES DE SOUZA",
    "Codigo": "1302760354",
    "Endereco": "RUA TRIUNFO, N° 24 - ANTIGO 16",
    "Bairro": "CHATUBA",
    "Latitude": "-21.651132",
    "Longitude": "-41.744957",
    "N° HD": "",
    "Categoria": "Residencial",
    "Situação Água/Esgoto": "Água - ATIVA | Esgoto - POTENCIAL",
    "Foto": "https://i.postimg.cc/ZKnRXkv9/photo-10124215.jpg"
  },
  "1301610518": {
    "Nome": "ADELIA MARIA DA SILVA VERISSIMO DE SOUZA",
    "Codigo": "1301610518",
    "Endereco": "RUA SANTA LUZIA, N° 332 - IPUCA",
    "Bairro": "IPUCA",
    "Latitude": "-21.64135",
    "Longitude": "-41.735219",
    "N° HD": "A23SG0736463",
    "Categoria": "Residencial",
    "Situação Água/Esgoto": "Água - ATIVA | Esgoto - POTENCIAL",
    "Foto": "https://i.postimg.cc/dQyk0ctz/photo-111234205.jpg"
  },
  "1301561923": {
    "Nome": "ADELIA MORETH LESSA",
    "Codigo": "1301561923",
    "Endereco": "RUA CICINIO DE SOUZA FARIA, N° 358 - /SAO VICENTE",
    "Bairro": "SÃO VICENTE",
    "Latitude": "-21.653575",
    "Longitude": "-41.741723",
    "N° HD": "A23SG0603134",
    "Categoria": "Residencial",
    "Situação Água/Esgoto": "Água - ATIVA | Esgoto - POTENCIAL",
    "Foto": "https://i.postimg.cc/ry1VbVpF/photo-135613384.jpg"
  },
  "1301775253": {
    "Nome": "ADELIA PEREIRA DA COSTA",
    "Codigo": "1301775253",
    "Endereco": "RUA ANTONIO XAVIER MAIA, N° 551",
    "Bairro": "PENHA",
    "Latitude": "-21.655474",
    "Longitude": "-41.752874",
    "N° HD": "A24LM0386433",
    "Categoria": "Residencial",
    "Situação Água/Esgoto": "Água - ATIVA | Esgoto - POTENCIAL",
    "Foto": "https://i.postimg.cc/sXprtms0/photo-130005908.jpg"
  },
  "1300847392": {
    "Nome": "ADELIA RIBEIRO CASANOVA SERPA",
    "Codigo": "1300847392",
    "Endereco": "RUA THEODORO GOUVEIA DE ABREU, N° 268 - TERREO",
    "Bairro": "SÃO VICENTE",
    "Latitude": "-21.65212",
    "Longitude": "-41.743824",
    "N° HD": "Y16C030134",
    "Categoria": "Residencial",
    "Situação Água/Esgoto": "Água - ATIVA | Esgoto - POTENCIAL",
    "Foto": "https://i.postimg.cc/tCFSQgZJ/photo-151443968.jpg"
  },
  "1301145443": {
    "Nome": "ADELINA ESCALA FERREIRA",
    "Codigo": "1301145443",
    "Endereco": "RUA SANTO AMARO, N° 185 - IPUCA",
    "Bairro": "IPUCA",
    "Latitude": "-21.641165",
    "Longitude": "-41.746359",
    "N° HD": "A24SG0605024",
    "Categoria": "Residencial",
    "Situação Água/Esgoto": "Água - ATIVA | Esgoto - POTENCIAL",
    "Foto": "https://i.postimg.cc/HnDwBQt2/photo-161641931.jpg"
  },
  "1301925196": {
    "Nome": "ADELINA MARIA DE ASSIS",
    "Codigo": "1301925196",
    "Endereco": "RUA SANTA EDWIRGES, N° 103",
    "Bairro": "CRISTO REI",
    "Latitude": "-21.638991",
    "Longitude": "-41.755949",
    "N° HD": "A24LM0388460",
    "Categoria": "Residencial",
    "Situação Água/Esgoto": "Água - ATIVA | Esgoto - POTENCIAL",
    "Foto": "https://i.postimg.cc/8kRMTfH2/photo-163815209.jpg"
  },
  "1301745475": {
    "Nome": "ADELINI SOARES DA SILVA E SILVA ",
    "Codigo": "1301745475",
    "Endereco": "RUA THEODORO GOUVEIA DE ABREU, N° 696 - A SAO VICENTE",
    "Bairro": "SÃO VICENTE",
    "Latitude": "-21.653278",
    "Longitude": "-41.741762",
    "N° HD": "A24SG0683504",
    "Categoria": "Residencial",
    "Situação Água/Esgoto": "Água - ATIVA | Esgoto - POTENCIAL",
    "Foto": "https://i.postimg.cc/P59PWdyb/photo-135310094.jpg"
  },
  "1302764298": {
    "Nome": "ADELINI SOARES DA SILVA E SILVA ",
    "Codigo": "1302764298",
    "Endereco": "RUA THEODORO GOUVEIA DE ABREU, N° 696 - COMERCIO",
    "Bairro": "SÃO VICENTE",
    "Latitude": "-21.652699",
    "Longitude": "-41.741395",
    "N° HD": "",
    "Categoria": "Comercial",
    "Situação Água/Esgoto": "Água - FACTÍVEL | Esgoto - POTENCIAL",
    "Foto": "https://i.postimg.cc/Kv4GJdR0/photo-101457986.jpg"
  },
  "1301443478": {
    "Nome": "ADELINO DA CONCEICAO",
    "Codigo": "1301443478",
    "Endereco": "RUA PASTOR JOSE PEREIRA LIMA, N° 86",
    "Bairro": "PARQUE TINOLA",
    "Latitude": "-21.656637",
    "Longitude": "-41.750333",
    "N° HD": "",
    "Categoria": "Residencial",
    "Situação Água/Esgoto": "Água - ATIVA | Esgoto - POTENCIAL",
    "Foto": "https://i.postimg.cc/FR84qKfG/photo-095256091.jpg"
  },
  "1300847279": {
    "Nome": "ADELINO DE SOUZA BENTO",
    "Codigo": "1300847279",
    "Endereco": "RUA FIDELIS JUNQUEIRA, N° 64 - SAO VICENTE",
    "Bairro": "SÃO VICENTE",
    "Latitude": "-21.652827",
    "Longitude": "-41.743871",
    "N° HD": "A24SG0805115",
    "Categoria": "Residencial",
    "Situação Água/Esgoto": "Água - ATIVA | Esgoto - POTENCIAL",
    "Foto": "https://i.postimg.cc/02qgJF76/photo-154552838.jpg"
  },
  "1301129884": {
    "Nome": "ADELINO LOPES VIEIRA",
    "Codigo": "1301129884",
    "Endereco": "RUA CENTRAL, N° 39 - FRENTE/TERREO",
    "Bairro": "IPUCA",
    "Latitude": "-21.639502",
    "Longitude": "-41.733798",
    "N° HD": "Y16L446642",
    "Categoria": "Residencial",
    "Situação Água/Esgoto": "Água - ATIVA | Esgoto - ATIVA",
    "Foto": "https://i.postimg.cc/BvPNpQ0J/photo-160827794.jpg"
  },
  "1301850015": {
    "Nome": "ADELIRIO DE FARIA VIEIRA",
    "Codigo": "1301850015",
    "Endereco": "RUA ISAIAS CONCEICAO DE SOUZA, N° 13",
    "Bairro": "VILA DOS COROADOS",
    "Latitude": "-21.635979",
    "Longitude": "-41.762859",
    "N° HD": "A23SG0500278",
    "Categoria": "Residencial",
    "Situação Água/Esgoto": "Água - ATIVA | Esgoto - POTENCIAL",
    "Foto": "https://i.postimg.cc/nrSQNB4g/photo-150157662.jpg"
  },
  "1302525410": {
    "Nome": "ADELITA AMARAL FARIA",
    "Codigo": "1302525410",
    "Endereco": "RUA ALEIXO PERES, N° 85",
    "Bairro": "PUREZA",
    "Latitude": "-21.592892",
    "Longitude": "-41.839117",
    "N° HD": "A25BR0012492",
    "Categoria": "Residencial",
    "Situação Água/Esgoto": "Água - ATIVA | Esgoto - POTENCIAL",
    "Foto": "https://i.postimg.cc/Kjj17j6N/photo-11280485.jpg"
  },
  "1302846911": {
    "Nome": "ADELMA MALAFAIA CARLOS DE POINTIS",
    "Codigo": "1302846911",
    "Endereco": "RUA JOSE DOS SANTOS, N° 505 - LT 2 QD A",
    "Bairro": "VILA DOS COROADOS",
    "Latitude": "",
    "Longitude": "",
    "N° HD": "A24BR0473664",
    "Categoria": "Residencial",
    "Situação Água/Esgoto": "Água - ATIVA | Esgoto - POTENCIAL",
    "Foto": "https://i.postimg.cc/cJT1DZM5/photo-143618668.jpg"
  },
  "1302564224": {
    "Nome": "ADELMO COSTA DE ALMEIDA",
    "Codigo": "1302564224",
    "Endereco": "RUA ARTHUR BARBOSA, N° 9 - LT 05 QD A",
    "Bairro": "IPUCA",
    "Latitude": "-21.643436",
    "Longitude": "-41.732523",
    "N° HD": "Y21C053637",
    "Categoria": "Residencial",
    "Situação Água/Esgoto": "Água - ATIVA | Esgoto - POTENCIAL",
    "Foto": "https://i.postimg.cc/yNfgD05d/photo-161652587.jpg"
  },
  "1301638428": {
    "Nome": "ADELMO P PINTO JUNIOR",
    "Codigo": "1301638428",
    "Endereco": "RUA EXP EIDUARTE DA S.PONTES, N° 20 - PUREZA",
    "Bairro": "PUREZA",
    "Latitude": "-21.594649",
    "Longitude": "-41.839037",
    "N° HD": "A23SG0637900",
    "Categoria": "Residencial",
    "Situação Água/Esgoto": "Água - ATIVA | Esgoto - POTENCIAL",
    "Foto": "https://i.postimg.cc/yYFDFM52/photo-143943122.jpg"
  },
  "1301642830": {
    "Nome": "ADELMO RODRIGUES MELLO",
    "Codigo": "1301642830",
    "Endereco": "RUA EXP EIDUARTE DA S.PONTES, N° 16 - PUREZA",
    "Bairro": "PUREZA",
    "Latitude": "-21.595184",
    "Longitude": "-41.838989",
    "N° HD": "A22SG0424847",
    "Categoria": "Residencial",
    "Situação Água/Esgoto": "Água - ATIVA | Esgoto - POTENCIAL",
    "Foto": "https://i.postimg.cc/25JjpGM4/photo-111648248.jpg"
  },
  "1301759747": {
    "Nome": "ADELQUE ALVES DA VEIGA",
    "Codigo": "1301759747",
    "Endereco": "RUA CELITA PERES GOMES, N° 43 - VILA COROADOS",
    "Bairro": "VILA DOS COROADOS",
    "Latitude": "-21.631842",
    "Longitude": "-41.764678",
    "N° HD": "Y20C166290",
    "Categoria": "Residencial",
    "Situação Água/Esgoto": "Água - ATIVA | Esgoto - POTENCIAL",
    "Foto": "https://i.postimg.cc/qqrT05LC/photo-154153132.jpg"
  },
  "1302759186": {
    "Nome": "ADELZA LOPES DA SILVA",
    "Codigo": "1302759186",
    "Endereco": "RUA REIS MAGOS, N° 59 - A",
    "Bairro": "CHATUBA",
    "Latitude": "-21.650942",
    "Longitude": "-41.744773",
    "N° HD": "",
    "Categoria": "Residencial",
    "Situação Água/Esgoto": "Água - ATIVA | Esgoto - POTENCIAL",
    "Foto": "https://i.postimg.cc/fyC6sTy6/photo-103101721.jpg"
  },
  "1300847412": {
    "Nome": "ADEMAIR RIBEIRO QUINTES",
    "Codigo": "1300847412",
    "Endereco": "RUA JULIO DANIEL CRUZ, N° 104",
    "Bairro": "BARAO MACAUBAS",
    "Latitude": "-21.654432",
    "Longitude": "-41.746612",
    "N° HD": "A25BR0002957",
    "Categoria": "Residencial",
    "Situação Água/Esgoto": "Água - ATIVA | Esgoto - POTENCIAL",
    "Foto": "https://i.postimg.cc/jSmBt1qd/photo-164740493.jpg"
  },
  "1302175803": {
    "Nome": "ADEMAR CANDIDO",
    "Codigo": "1302175803",
    "Endereco": "RUA DA COROA, N° 20 - CASA",
    "Bairro": "PARQUE VILA ANGELIM",
    "Latitude": "-21.603826",
    "Longitude": "-41.841233",
    "N° HD": "",
    "Categoria": "Residencial",
    "Situação Água/Esgoto": "Água - ATIVA | Esgoto - POTENCIAL",
    "Foto": "https://i.postimg.cc/4x6px7s7/photo-090936355.jpg"
  },
  "1300847464": {
    "Nome": "ADEMAR CORREA",
    "Codigo": "1300847464",
    "Endereco": "RUA VEREADOR ALBERTO RUBIM, N° 360",
    "Bairro": "BARAO MACAUBAS",
    "Latitude": "-21.65343",
    "Longitude": "-41.746048",
    "N° HD": "Y21C043130",
    "Categoria": "Residencial",
    "Situação Água/Esgoto": "Água - ATIVA | Esgoto - POTENCIAL",
    "Foto": "https://i.postimg.cc/RF679PF9/photo-115726454.jpg"
  },
  "1301791875": {
    "Nome": "ADEMAR DA SILVA RIBEIRO",
    "Codigo": "1301791875",
    "Endereco": "RUA ARMINDO M DE OLIVEIRA, N° 266",
    "Bairro": "BARAO MACAUBAS",
    "Latitude": "-21.655699",
    "Longitude": "-41.750506",
    "N° HD": "A23SG0531255",
    "Categoria": "Residencial",
    "Situação Água/Esgoto": "Água - ATIVA | Esgoto - POTENCIAL",
    "Foto": "https://i.postimg.cc/7ZRbDqTG/photo-111508217.jpg"
  },
  "1301619886": {
    "Nome": "ADEMAR DE OLIVEIRA",
    "Codigo": "1301619886",
    "Endereco": "RUA MANOEL PICANCIO DE ABREU, N° 51 - IPUCA",
    "Bairro": "IPUCA",
    "Latitude": "-21.641535",
    "Longitude": "-41.738448",
    "N° HD": "A24LM0419901",
    "Categoria": "Residencial",
    "Situação Água/Esgoto": "Água - ATIVA | Esgoto - POTENCIAL",
    "Foto": "https://i.postimg.cc/BvWsMbKg/photo-124810565-1.jpg"
  },
  "1301195743": {
    "Nome": "ADEMAR LAGE CARDOZO",
    "Codigo": "1301195743",
    "Endereco": "RUA ALSALGA TITO DE AZEVEDO, N° 690",
    "Bairro": "N DIVINEIA",
    "Latitude": "-21.638608",
    "Longitude": "-41.732947",
    "N° HD": "A24SG0603900",
    "Categoria": "Residencial",
    "Situação Água/Esgoto": "Água - ATIVA | Esgoto - ATIVA",
    "Foto": "https://i.postimg.cc/3NqzNfjB/photo-105407378.jpg"
  },
  "1302763589": {
    "Nome": "ADEMAR MATHIAS DA SILVA ",
    "Codigo": "1302763589",
    "Endereco": "RUA GUSTAVO JOSE DE SOUZA, N° 112 - A",
    "Bairro": "SÃO VICENTE",
    "Latitude": "-21.654444",
    "Longitude": "-41.741922",
    "N° HD": "A24SG0603890",
    "Categoria": "Residencial",
    "Situação Água/Esgoto": "Água - ATIVA | Esgoto - POTENCIAL",
    "Foto": "https://i.postimg.cc/jjvgCkt7/photo-121631628.jpg"
  },
  "1301608509": {
    "Nome": "ADEMAR PEREIRA GUIMARAES",
    "Codigo": "1301608509",
    "Endereco": "RUA SONG CARDOSO CORTES, N° 21",
    "Bairro": "PUREZA",
    "Latitude": "-21.582898",
    "Longitude": "-41.839344",
    "N° HD": "Y16C010401",
    "Categoria": "Residencial",
    "Situação Água/Esgoto": "Água - ATIVA | Esgoto - POTENCIAL",
    "Foto": "https://i.postimg.cc/WzZxD69c/photo-111018436.jpg"
  },
  "1301879181": {
    "Nome": "ADEMAR TINOCO GOULART",
    "Codigo": "1301879181",
    "Endereco": "RUA ANTONIO MAIA FILHO, N° 58",
    "Bairro": "CARECAS",
    "Latitude": "-21.656355",
    "Longitude": "-41.747087",
    "N° HD": "A22SG0424693",
    "Categoria": "Residencial",
    "Situação Água/Esgoto": "Água - ATIVA | Esgoto - POTENCIAL",
    "Foto": "https://i.postimg.cc/nLMRjGzS/photo-131453673.jpg"
  },
  "1302851715": {
    "Nome": "ADEMILDE MARINHO DE ALMEIDA",
    "Codigo": "1302851715",
    "Endereco": "RUA JOSE DOS SANTOS, N° 16 - LT 16 QD A - LADO",
    "Bairro": "VILA DOS COROADOS",
    "Latitude": "",
    "Longitude": "",
    "N° HD": "",
    "Categoria": "Residencial",
    "Situação Água/Esgoto": "Água - FACTÍVEL | Esgoto - POTENCIAL",
    "Foto": "https://i.postimg.cc/Z55j2xrY/photo-162553345.jpg"
  },
  "1300845789": {
    "Nome": "ADEMILDES GOMES BARROSO",
    "Codigo": "1300845789",
    "Endereco": "RUA JACY NADER, N° 245",
    "Bairro": "PUREZA",
    "Latitude": "-21.592504",
    "Longitude": "-41.840857",
    "N° HD": "A23SG0531278",
    "Categoria": "Residencial",
    "Situação Água/Esgoto": "Água - ATIVA | Esgoto - POTENCIAL",
    "Foto": "https://i.postimg.cc/zBZCzCRg/photo-163656918.jpg"
  },
  "1302563462": {
    "Nome": "ADEMILSON CARLOS CDE AZEVEDO",
    "Codigo": "1302563462",
    "Endereco": "RUA FRANCISCO POLICARPO, N° 111 - CASA 1",
    "Bairro": "VILA DOS COROADOS",
    "Latitude": "-21.638251",
    "Longitude": "-41.7641",
    "N° HD": "A24LM0419927",
    "Categoria": "Residencial",
    "Situação Água/Esgoto": "Água - ATIVA | Esgoto - POTENCIAL",
    "Foto": "https://i.postimg.cc/1t83j2z0/photo-175435049.jpg"
  },
  "1301492216": {
    "Nome": "ADEMILSON CORDEIRO BARRETO",
    "Codigo": "1301492216",
    "Endereco": "RUA TIRO DE GUERRA, N° 318",
    "Bairro": "N DIVINEIA",
    "Latitude": "-21.639228",
    "Longitude": "-41.733401",
    "N° HD": "A22SG0628892",
    "Categoria": "Residencial",
    "Situação Água/Esgoto": "Água - ATIVA | Esgoto - ATIVA",
    "Foto": "https://i.postimg.cc/CKByTgjK/photo-11194673.jpg"
  },
  "1302399673": {
    "Nome": "ADEMILSON CORDEIRO BARRETO",
    "Codigo": "1302399673",
    "Endereco": "RUA TIRO DE GUERRA, N° 252 - TERREO",
    "Bairro": "N DIVINEIA",
    "Latitude": "-21.638997",
    "Longitude": "-41.733847",
    "N° HD": "Y20C261660",
    "Categoria": "Residencial",
    "Situação Água/Esgoto": "Água - ATIVA | Esgoto - ATIVA",
    "Foto": "https://i.postimg.cc/KYw1xxwp/photo-141315852.jpg"
  },
  "1302288125": {
    "Nome": "ADEMILSON VIEIRA DE CASTRO",
    "Codigo": "1302288125",
    "Endereco": "RUA DO CABO, N° 33",
    "Bairro": "PUREZA",
    "Latitude": "-21.595664",
    "Longitude": "-41.839407",
    "N° HD": "A23SG0637614",
    "Categoria": "Residencial",
    "Situação Água/Esgoto": "Água - ATIVA | Esgoto - POTENCIAL",
    "Foto": "https://i.postimg.cc/66Lp1rWm/photo-144358468.jpg"
  },
  "1302166483": {
    "Nome": "ADEMIR A DE CARVALHO E OUTROS",
    "Codigo": "1302166483",
    "Endereco": "RUA CICINIO DE SOUZA FARIA, N° 40 - \"\"A\"\"",
    "Bairro": "SÃO VICENTE",
    "Latitude": "-21.652081",
    "Longitude": "-41.74432",
    "N° HD": "A07N449287",
    "Categoria": "Comercial",
    "Situação Água/Esgoto": "Água - CORTADA POR DÉBITO | Esgoto - POTENCIAL",
    "Foto": "https://i.postimg.cc/FRN2fJMY/photo-090601769-1.jpg"
  },
  "1302175509": {
    "Nome": "ADEMIR ALEXANDRE BRASIL",
    "Codigo": "1302175509",
    "Endereco": "RUA PUREZA(RJ 158), N° 1004",
    "Bairro": "PARQUE VILA ANGELIM",
    "Latitude": "-21.606333",
    "Longitude": "-41.839606",
    "N° HD": "A23SG0736310",
    "Categoria": "Residencial",
    "Situação Água/Esgoto": "Água - CORTADA POR DÉBITO | Esgoto - POTENCIAL",
    "Foto": "https://i.postimg.cc/zDL9y5MS/photo-121157604.jpg"
  },
  "1301037541": {
    "Nome": "ADEMIR BARBOSA DIAS",
    "Codigo": "1301037541",
    "Endereco": "RUA SEBASTIAO TITO DE AZEVEDO, N° 44",
    "Bairro": "N DIVINEIA",
    "Latitude": "-21.640763",
    "Longitude": "-41.735499",
    "N° HD": "A25BR0002935",
    "Categoria": "Residencial",
    "Situação Água/Esgoto": "Água - ATIVA | Esgoto - POTENCIAL",
    "Foto": "https://i.postimg.cc/nc4SmL17/photo-163709935.jpg"
  },
  "1300893936": {
    "Nome": "ADEMIR BARROS FIGUEIRA",
    "Codigo": "1300893936",
    "Endereco": "RUA OSMAR DE ASSIS MAIA, N° 246",
    "Bairro": "MONTESE",
    "Latitude": "-21.650153",
    "Longitude": "-41.74236",
    "N° HD": "A24BR0473706",
    "Categoria": "Residencial",
    "Situação Água/Esgoto": "Água - ATIVA | Esgoto - POTENCIAL",
    "Foto": "https://i.postimg.cc/bvxvck0r/photo-111217882-1.jpg"
  },
  "1300847932": {
    "Nome": "ADEMIR BASTOS DAS CHAGAS",
    "Codigo": "1300847932",
    "Endereco": "RUA LOUREIRO, N° 679 - FRENTE IPUCA",
    "Bairro": "IPUCA",
    "Latitude": "-21.642175",
    "Longitude": "-41.737442",
    "N° HD": "A24SG0840117",
    "Categoria": "Residencial",
    "Situação Água/Esgoto": "Água - ATIVA | Esgoto - POTENCIAL",
    "Foto": "https://i.postimg.cc/fRKw8DMS/photo-093144194.jpg"
  },
  "1301668808": {
    "Nome": "ADEMIR BASTOS DAS CHAGAS",
    "Codigo": "1301668808",
    "Endereco": "RUA LOUREIRO, N° 679 - IPUCA",
    "Bairro": "IPUCA",
    "Latitude": "-21.642194",
    "Longitude": "-41.737423",
    "N° HD": "Y20C113171",
    "Categoria": "Residencial",
    "Situação Água/Esgoto": "Água - ATIVA | Esgoto - POTENCIAL",
    "Foto": "https://i.postimg.cc/K8YVy2nM/photo-145737263.jpg"
  },
  "1302399684": {
    "Nome": "ADEMIR BRITO",
    "Codigo": "1302399684",
    "Endereco": "RUA JOSE SIMAO, N° 91 - A C/1 LT 6",
    "Bairro": "MONTESE",
    "Latitude": "-21.650501",
    "Longitude": "-41.740229",
    "N° HD": "A24SG0238631",
    "Categoria": "Residencial",
    "Situação Água/Esgoto": "Água - ATIVA | Esgoto - POTENCIAL",
    "Foto": "https://i.postimg.cc/SK2vJf1Q/photo-160334081.jpg"
  },
  "1301365401": {
    "Nome": "ADEMIR COUTO RODRIGUES",
    "Codigo": "1301365401",
    "Endereco": "RUA VER ULISSES V.FERREIRA, N° 308",
    "Bairro": "VILA DOS COROADOS",
    "Latitude": "-21.634095",
    "Longitude": "-41.766802",
    "N° HD": "A24BR0486884",
    "Categoria": "Residencial",
    "Situação Água/Esgoto": "Água - ATIVA | Esgoto - POTENCIAL",
    "Foto": "https://i.postimg.cc/5N4KwVKR/photo-171415407.jpg"
  },
  "1301630490": {
    "Nome": "ADEMIR DIAS MONTEIRO",
    "Codigo": "1301630490",
    "Endereco": "RUA CIRINO AGUIAR, N° 6",
    "Bairro": "PUREZA",
    "Latitude": "-21.581471",
    "Longitude": "-41.839074",
    "N° HD": "",
    "Categoria": "Residencial",
    "Situação Água/Esgoto": "Água - DESLIGADA A PEDIDO | Esgoto - POTENCIAL",
    "Foto": "https://i.postimg.cc/L5HDBtD1/photo-113709905.jpg"
  },
  "1301656011": {
    "Nome": "ADEMIR FERREIRA PECANHA",
    "Codigo": "1301656011",
    "Endereco": "RUA MANOEL PICANCIO DE ABREU, N° 133 - IPUCA",
    "Bairro": "IPUCA",
    "Latitude": "-21.640899",
    "Longitude": "-41.738468",
    "N° HD": "Y16L449950",
    "Categoria": "Residencial",
    "Situação Água/Esgoto": "Água - ATIVA | Esgoto - POTENCIAL",
    "Foto": "https://i.postimg.cc/QtDJhQRy/photo-110008976.jpg"
  },
  "1300845949": {
    "Nome": "ADEMIR LOPES DE CARVALHO",
    "Codigo": "1300845949",
    "Endereco": "RUA IRANY GUIMARAES, N° 757 - CASA",
    "Bairro": "PUREZA",
    "Latitude": "-21.582478",
    "Longitude": "-41.838549",
    "N° HD": "A23SG0530961",
    "Categoria": "Residencial",
    "Situação Água/Esgoto": "Água - ATIVA | Esgoto - POTENCIAL",
    "Foto": "https://i.postimg.cc/7L3SsCfM/photo-151608646.jpg"
  },
  "1301463388": {
    "Nome": "ADEMIR MACEDO DA SILVA",
    "Codigo": "1301463388",
    "Endereco": "RUA DOS BRAGANCAS, N° 36 - FUNDOS IPUCA",
    "Bairro": "IPUCA",
    "Latitude": "-21.640647",
    "Longitude": "-41.734877",
    "N° HD": "",
    "Categoria": "Residencial",
    "Situação Água/Esgoto": "Água - ATIVA | Esgoto - POTENCIAL",
    "Foto": "https://i.postimg.cc/dVdC37mP/photo-120032719.jpg"
  },
  "1301918728": {
    "Nome": "ADEMIR MOSCA DIAS",
    "Codigo": "1301918728",
    "Endereco": "RUA OSMAR DE ASSIS MAIA, N° 270 - ALTOS",
    "Bairro": "PARQUE SÃO JOSE",
    "Latitude": "-21.650017",
    "Longitude": "-41.742224",
    "N° HD": "A24SG0839976",
    "Categoria": "Residencial",
    "Situação Água/Esgoto": "Água - ATIVA | Esgoto - POTENCIAL",
    "Foto": "https://i.postimg.cc/CKRx59VZ/photo-092413254.jpg"
  },
  "1302829100": {
    "Nome": "ADEMIR PALMARES DA SILVA",
    "Codigo": "1302829100",
    "Endereco": "RUA SANTA RITA DO BREJINHO, N° 1131 - CASA EM OBRA, DE COR BRANCA COM CERCA DE TELA AZUL",
    "Bairro": "BREJINHO",
    "Latitude": "-21.623055",
    "Longitude": "-41.740079",
    "N° HD": "A24SG0648683",
    "Categoria": "Residencial",
    "Situação Água/Esgoto": "Água - ATIVA | Esgoto - POTENCIAL",
    "Foto": "https://i.postimg.cc/gcHmzG6S/photo-171234195-1.jpg"
  },
  "1300847429": {
    "Nome": "ADEMIR PEREIRA ESCALA",
    "Codigo": "1300847429",
    "Endereco": "RUA DOMINGOS JOSE DE SOUZA, N° 54",
    "Bairro": "GRUPIARIA",
    "Latitude": "-21.654801",
    "Longitude": "-41.747255",
    "N° HD": "A24BR0446755",
    "Categoria": "Residencial",
    "Situação Água/Esgoto": "Água - ATIVA | Esgoto - POTENCIAL",
    "Foto": "https://i.postimg.cc/Gh3TqzyX/photo-124434904.jpg"
  },
  "1301942646": {
    "Nome": "ADEMIR ROCHA GUIMARAES",
    "Codigo": "1301942646",
    "Endereco": "RUA JOAO GUSMAO FILHO, N° 98 - CASA",
    "Bairro": "PARQUE SÃO JOSE",
    "Latitude": "-21.651215",
    "Longitude": "-41.742302",
    "N° HD": "A23SG0637679",
    "Categoria": "Residencial",
    "Situação Água/Esgoto": "Água - ATIVA | Esgoto - POTENCIAL",
    "Foto": "https://i.postimg.cc/ZnnZy9Wx/photo-100115652.jpg"
  },
  "1301327479": {
    "Nome": "ADEMIR SANTANA ESPECIE",
    "Codigo": "1301327479",
    "Endereco": "RUA BELA VISTA, N° 651 - IPUCA 479",
    "Bairro": "IPUCA",
    "Latitude": "-21.638486",
    "Longitude": "-41.733107",
    "N° HD": "Y20C261650",
    "Categoria": "Residencial",
    "Situação Água/Esgoto": "Água - ATIVA | Esgoto - ATIVA",
    "Foto": "https://i.postimg.cc/PrM9kfNt/photo-111112216.jpg"
  },
  "1302042269": {
    "Nome": "ADEMIR SOUZA HENTZY",
    "Codigo": "1302042269",
    "Endereco": "RUA ABEL FRANCISCO PALAGAR, N° 495",
    "Bairro": "PARQUE TINOLA",
    "Latitude": "-21.659232",
    "Longitude": "-41.751836",
    "N° HD": "Y16L449611",
    "Categoria": "Residencial",
    "Situação Água/Esgoto": "Água - ATIVA | Esgoto - POTENCIAL",
    "Foto": "https://i.postimg.cc/bwVzp9dN/photo-164251943-1.jpg"
  },
  "1301561914": {
    "Nome": "ADEMIR VICENTE OUROFINO LARRUBIA",
    "Codigo": "1301561914",
    "Endereco": "RUA SAO JOSE BAIRRO IPUCA, N° 340 - CASA BAIXO",
    "Bairro": "IPUCA",
    "Latitude": "-21.639401",
    "Longitude": "-41.735579",
    "N° HD": "A24SG0683521",
    "Categoria": "Residencial",
    "Situação Água/Esgoto": "Água - ATIVA | Esgoto - ATIVA",
    "Foto": "https://i.postimg.cc/fbv1Mw87/photo-165414145.jpg"
  },
  "1301738911": {
    "Nome": "ADENAILCE SOARES BARRETO DIAS",
    "Codigo": "1301738911",
    "Endereco": "RUA FRANCISCO POLICARPO, N° 147 - COROADOS",
    "Bairro": "VILA DOS COROADOS",
    "Latitude": "-21.638533",
    "Longitude": "-41.764427",
    "N° HD": "A24LM0387002",
    "Categoria": "Residencial",
    "Situação Água/Esgoto": "Água - ATIVA | Esgoto - POTENCIAL",
    "Foto": "https://i.postimg.cc/bNDJrMcS/photo-122634496.jpg"
  },
  "1301759325": {
    "Nome": "ADENILDA VICENTE DE CASTRO",
    "Codigo": "1301759325",
    "Endereco": "RUA JOSE SIMAO, N° 134 - B-MONTESE",
    "Bairro": "MONTESE",
    "Latitude": "-21.649815",
    "Longitude": "-41.739792",
    "N° HD": "A24BR0473526",
    "Categoria": "Residencial",
    "Situação Água/Esgoto": "Água - ATIVA | Esgoto - POTENCIAL",
    "Foto": "https://i.postimg.cc/T2Sdz9Ld/photo-12181887.jpg"
  },
  "1301087583": {
    "Nome": "ADENILDES CORDEIRO BARRETO",
    "Codigo": "1301087583",
    "Endereco": "RUA GERALDO LUSITANO MAIA, N° 95 - CASA - P.TINOLA",
    "Bairro": "PARQUE TINOLA",
    "Latitude": "-21.654824",
    "Longitude": "-41.74962",
    "N° HD": "A24SG0804672",
    "Categoria": "Residencial",
    "Situação Água/Esgoto": "Água - ATIVA | Esgoto - POTENCIAL",
    "Foto": "https://i.postimg.cc/nV6s4Z1G/photo-115113448.jpg"
  },
  "1302179887": {
    "Nome": "ADENILSON DA COSTA SILVA",
    "Codigo": "1302179887",
    "Endereco": "RUA SANTO AMARO, N° 210 - APTO 202",
    "Bairro": "IPUCA",
    "Latitude": "-21.640972",
    "Longitude": "-41.746619",
    "N° HD": "Y20C257251",
    "Categoria": "Residencial",
    "Situação Água/Esgoto": "Água - CORTADA POR DÉBITO | Esgoto - POTENCIAL",
    "Foto": "https://i.postimg.cc/0NQ2gHfN/photo-120450068.jpg"
  },
  "1302073553": {
    "Nome": "ADENILTON DA SILVA PORTO",
    "Codigo": "1302073553",
    "Endereco": "RUA ENEIA VIRGINIO DOS SANTOS, N° 13 - RESTAURANTE DA PEDREIRA",
    "Bairro": "CRISTO REI",
    "Latitude": "-21.639981",
    "Longitude": "-41.746746",
    "N° HD": "A22SG0424474",
    "Categoria": "Residencial",
    "Situação Água/Esgoto": "Água - ATIVA | Esgoto - POTENCIAL",
    "Foto": "https://i.postimg.cc/ZK4mtMYh/photo-111245827.jpg"
  },
  "1301717913": {
    "Nome": "ADENIR GONCALVES MIRANDA",
    "Codigo": "1301717913",
    "Endereco": "RUA JOSE DAMASCENO, N° 92 - SAO VICENTE",
    "Bairro": "CHATUBA",
    "Latitude": "-21.653531",
    "Longitude": "-41.742512",
    "N° HD": "A22SG0629075",
    "Categoria": "Residencial",
    "Situação Água/Esgoto": "Água - ATIVA | Esgoto - POTENCIAL",
    "Foto": "https://i.postimg.cc/VvzVT2qG/photo-134910764.jpg"
  },
  "1300846369": {
    "Nome": "ADENIR GONCALVES MIRANDA",
    "Codigo": "1300846369",
    "Endereco": "RUA LUIZ DA COSTA MACHADO, N° 435 - TERREO C/4",
    "Bairro": "PENHA",
    "Latitude": "-21.650557",
    "Longitude": "-41.749763",
    "N° HD": "A24SG0840293",
    "Categoria": "Residencial",
    "Situação Água/Esgoto": "Água - ATIVA | Esgoto - POTENCIAL",
    "Foto": "https://i.postimg.cc/5yPnryNy/photo-111207045.jpg"
  },
  "1301919175": {
    "Nome": "ADENIR MACEDO DA SILVA",
    "Codigo": "1301919175",
    "Endereco": "RUA ANIBAL CAMPOS, N° 113 - FDS",
    "Bairro": "IPUCA",
    "Latitude": "-21.640827",
    "Longitude": "-41.739049",
    "N° HD": "A23SG0735701",
    "Categoria": "Residencial",
    "Situação Água/Esgoto": "Água - ATIVA | Esgoto - POTENCIAL",
    "Foto": "https://i.postimg.cc/HLC4BX43/photo-153011829.jpg"
  },
  "1302591390": {
    "Nome": "ADENIR MACEDO DA SILVA",
    "Codigo": "1302591390",
    "Endereco": "RUA TIRO DE GUERRA, N° 36",
    "Bairro": "N DIVINEIA",
    "Latitude": "-21.638439",
    "Longitude": "-41.734995",
    "N° HD": "A24LM0386431",
    "Categoria": "Residencial",
    "Situação Água/Esgoto": "Água - ATIVA | Esgoto - POTENCIAL",
    "Foto": "https://i.postimg.cc/Bb1XrwJF/photo-150246865.jpg"
  },
  "1300846425": {
    "Nome": "ADENISE MARIA R NASCIMENTO",
    "Codigo": "1300846425",
    "Endereco": "RUA ANTONIO AZEVEDO, N° 150",
    "Bairro": "PENHA",
    "Latitude": "-21.651635",
    "Longitude": "-41.750195",
    "N° HD": "A24SG0603272",
    "Categoria": "Residencial",
    "Situação Água/Esgoto": "Água - ATIVA | Esgoto - POTENCIAL",
    "Foto": "https://i.postimg.cc/9f8PVKHg/photo-153808775.jpg"
  },
  "1301354534": {
    "Nome": "ADENOR NUNES DE OLIVEIRA",
    "Codigo": "1301354534",
    "Endereco": "RUA FRANCISCO RIBEIRO NETO, N° 88 - PARQUE TINOLA",
    "Bairro": "PARQUE TINOLA",
    "Latitude": "-21.655151",
    "Longitude": "-41.749604",
    "N° HD": "Y21C000129",
    "Categoria": "Residencial",
    "Situação Água/Esgoto": "Água - ATIVA | Esgoto - POTENCIAL",
    "Foto": "https://i.postimg.cc/q7Rnmw6s/photo-09364428.jpg"
  },
  "1300846864": {
    "Nome": "ADERALDO FREITAS CANSOLINE",
    "Codigo": "1300846864",
    "Endereco": "RUA DOM LICINIO RANGEL, N° 239",
    "Bairro": "GAMBOA",
    "Latitude": "-21.645831",
    "Longitude": "-41.752825",
    "N° HD": "A22SG0424504",
    "Categoria": "Residencial",
    "Situação Água/Esgoto": "Água - ATIVA | Esgoto - POTENCIAL",
    "Foto": "https://i.postimg.cc/tJHsHNJm/photo-0927305-1.jpg"
  },
  "1302798127": {
    "Nome": "ADERALDO GARCIA GUIMARAES",
    "Codigo": "1302798127",
    "Endereco": "RUA ABEL FRANCISCO PALAGAR, N° 56",
    "Bairro": "PARQUE PANORAMA",
    "Latitude": "-21.658605",
    "Longitude": "-41.751232",
    "N° HD": "A22SG0629087",
    "Categoria": "Residencial",
    "Situação Água/Esgoto": "Água - CORTADA POR DÉBITO | Esgoto - POTENCIAL",
    "Foto": "https://i.postimg.cc/Ls146gcd/photo-113018482.jpg"
  },
  "1300846068": {
    "Nome": "ADERBAL BATISTA DA SILVA",
    "Codigo": "1300846068",
    "Endereco": "RUA JOANY BOCHARDET, N° 1 - TERRENO VAZIO EM FRENTE AO NUMERO 4",
    "Bairro": "PUREZA",
    "Latitude": "-21.593237",
    "Longitude": "-41.840694",
    "N° HD": "",
    "Categoria": "Residencial",
    "Situação Água/Esgoto": "Água - ATIVA | Esgoto - POTENCIAL",
    "Foto": "https://i.postimg.cc/ZnKh3WM5/photo-12324943.jpg"
  },
  "1301911221": {
    "Nome": "ADEVANI BATISTA",
    "Codigo": "1301911221",
    "Endereco": "RUA VEREADOR ALBERTO RUBIM, N° 305 - A - B.MACUBAS",
    "Bairro": "BARAO MACAUBAS",
    "Latitude": "-21.652923",
    "Longitude": "-41.74616",
    "N° HD": "A24SG0683418",
    "Categoria": "Residencial",
    "Situação Água/Esgoto": "Água - ATIVA | Esgoto - POTENCIAL",
    "Foto": "https://i.postimg.cc/wMsQwVPf/photo-165757107.jpg"
  },
  "1301911225": {
    "Nome": "ADEVANI BATISTA",
    "Codigo": "1301911225",
    "Endereco": "RUA VEREADOR ALBERTO RUBIM, N° 305 - B.MACAUBAS",
    "Bairro": "BARAO MACAUBAS",
    "Latitude": "-21.652899",
    "Longitude": "-41.746135",
    "N° HD": "A24SG0683229",
    "Categoria": "Residencial",
    "Situação Água/Esgoto": "Água - ATIVA | Esgoto - POTENCIAL",
    "Foto": "https://i.postimg.cc/kMcSdLNQ/photo-113552796.jpg"
  },
  "1301966875": {
    "Nome": "ADEVINO ACASSIO BORGES PIRES",
    "Codigo": "1301966875",
    "Endereco": "RUA NELIO RODRIGUES MAIA, N° 20",
    "Bairro": "PENHA",
    "Latitude": "-21.657572",
    "Longitude": "-41.754285",
    "N° HD": "A23SG0531334",
    "Categoria": "Residencial",
    "Situação Água/Esgoto": "Água - ATIVA | Esgoto - POTENCIAL",
    "Foto": "https://i.postimg.cc/pr6MJf6d/photo-084525486.jpg"
  },
  "1301470953": {
    "Nome": "ADHEMAR DE BARROS PIRES",
    "Codigo": "1301470953",
    "Endereco": "RUA CECILIA POLICARPO SEIXAS, N° 12 - CENTER CASA 12",
    "Bairro": "CENTRO",
    "Latitude": "-21.647848",
    "Longitude": "-41.750867",
    "N° HD": "Y21C120746",
    "Categoria": "Residencial",
    "Situação Água/Esgoto": "Água - ATIVA | Esgoto - POTENCIAL",
    "Foto": "https://i.postimg.cc/jSYF03Pb/photo-152607797.jpg"
  },
  "1301922762": {
    "Nome": "ADHEMAR DE BARROS PIRES",
    "Codigo": "1301922762",
    "Endereco": "RUA PRISCO DE ALMEIDA, N° 87",
    "Bairro": "BARAO MACAUBAS",
    "Latitude": "-21.651382",
    "Longitude": "-41.747954",
    "N° HD": "A24LM0419920",
    "Categoria": "Residencial",
    "Situação Água/Esgoto": "Água - ATIVA | Esgoto - POTENCIAL",
    "Foto": "https://i.postimg.cc/JzBHJK2G/photo-162406698.jpg"
  },
  "1300900362": {
    "Nome": "ADHEMAR DIAS DE CARVALHO",
    "Codigo": "1300900362",
    "Endereco": "RUA CICINIO DE SOUZA FARIA, N° 246 - SAO VICENTE",
    "Bairro": "SÃO VICENTE",
    "Latitude": "-21.654042",
    "Longitude": "-41.74288",
    "N° HD": "Y21C043023",
    "Categoria": "Residencial",
    "Situação Água/Esgoto": "Água - ATIVA | Esgoto - POTENCIAL",
    "Foto": "https://i.postimg.cc/3JxcK0bL/photo-141247516.jpg"
  },
  "1300845983": {
    "Nome": "ADIB CHAIM MURAD",
    "Codigo": "1300845983",
    "Endereco": "RUA IRANY GUIMARAES, N° 30",
    "Bairro": "PUREZA",
    "Latitude": "-21.587832",
    "Longitude": "-41.843461",
    "N° HD": "A23SG0736374",
    "Categoria": "Residencial",
    "Situação Água/Esgoto": "Água - ATIVA | Esgoto - POTENCIAL",
    "Foto": "https://i.postimg.cc/YjB0xBV0/photo-1438565.jpg"
  },
  "1300845976": {
    "Nome": "ADIB CHAIM MURAD",
    "Codigo": "1300845976",
    "Endereco": "RUA IRANY GUIMARAES, N° 60",
    "Bairro": "PUREZA",
    "Latitude": "-21.587863",
    "Longitude": "-41.843397",
    "N° HD": "A22SG0425010",
    "Categoria": "Residencial",
    "Situação Água/Esgoto": "Água - ATIVA | Esgoto - POTENCIAL",
    "Foto": "https://i.postimg.cc/t4NQrn7p/photo-16033855.jpg"
  },
  "1300845910": {
    "Nome": "ADIB CHAIM MURAD",
    "Codigo": "1300845910",
    "Endereco": "RUA IRANY GUIMARAES, N° 89",
    "Bairro": "PUREZA",
    "Latitude": "-21.587318",
    "Longitude": "-41.842729",
    "N° HD": "A23SG0531067",
    "Categoria": "Residencial",
    "Situação Água/Esgoto": "Água - ATIVA | Esgoto - POTENCIAL",
    "Foto": "https://i.postimg.cc/mkC6tKHB/photo-112144382.jpg"
  },
  "1300845905": {
    "Nome": "ADIB MURAD",
    "Codigo": "1300845905",
    "Endereco": "RUA IRANY GUIMARAES, N° 28",
    "Bairro": "PUREZA",
    "Latitude": "-21.592992",
    "Longitude": "-41.840329",
    "N° HD": "",
    "Categoria": "Residencial",
    "Situação Água/Esgoto": "Água - DESLIGADA A PEDIDO | Esgoto - POTENCIAL",
    "Foto": "https://i.postimg.cc/FFpSQDqL/photo-133242751.jpg"
  },
  "1300845907": {
    "Nome": "ADIB MURAD",
    "Codigo": "1300845907",
    "Endereco": "RUA IRANY GUIMARAES, N° 44",
    "Bairro": "PUREZA",
    "Latitude": "-21.587752",
    "Longitude": "-41.843154",
    "N° HD": "A24SG0604020",
    "Categoria": "Residencial",
    "Situação Água/Esgoto": "Água - CORTADA POR DÉBITO | Esgoto - POTENCIAL",
    "Foto": "https://i.postimg.cc/wjXHSb4K/photo-163214556.jpg"
  },
  "1300846842": {
    "Nome": "ADIB SKURY",
    "Codigo": "1300846842",
    "Endereco": "RUA DOM LICINIO RANGEL, N° 35",
    "Bairro": "GAMBOA",
    "Latitude": "-21.64683",
    "Longitude": "-41.751188",
    "N° HD": "",
    "Categoria": "Residencial",
    "Situação Água/Esgoto": "Água - DESLIGADA A PEDIDO | Esgoto - POTENCIAL",
    "Foto": "https://i.postimg.cc/VLRPgbJ1/photo-152700244.jpg"
  },
  "1302822598": {
    "Nome": "ADIBIO DA SILVA CORREA ",
    "Codigo": "1302822598",
    "Endereco": "RUA PROJ MORRO SANTO ANTONIO, N° 4 - CASA",
    "Bairro": "PARQUE VILA ANGELIM",
    "Latitude": "-21.605948",
    "Longitude": "-41.841322",
    "N° HD": "A23SG0736185",
    "Categoria": "Residencial",
    "Situação Água/Esgoto": "Água - ATIVA | Esgoto - POTENCIAL",
    "Foto": "https://i.postimg.cc/Qtrfv0zz/photo-173350185.jpg"
  },
  "1301811099": {
    "Nome": "ADIEL SANTOS BARBOSA",
    "Codigo": "1301811099",
    "Endereco": "RUA C BAIRRO VILA OPERARIA, N° 272",
    "Bairro": "PUREZA",
    "Latitude": "-21.584061",
    "Longitude": "-41.841221",
    "N° HD": "A25BR0012892",
    "Categoria": "Residencial",
    "Situação Água/Esgoto": "Água - ATIVA | Esgoto - POTENCIAL",
    "Foto": "https://i.postimg.cc/NfhRD5WN/photo-150404404-1.jpg"
  },
  "1301899910": {
    "Nome": "ADIELSON BARBOSA SIQUEIRA",
    "Codigo": "1301899910",
    "Endereco": "RUA EXP EIDUARTE DA S.PONTES, N° 426",
    "Bairro": "PUREZA",
    "Latitude": "-21.590794",
    "Longitude": "-41.841771",
    "N° HD": "A25BR0012653",
    "Categoria": "Residencial",
    "Situação Água/Esgoto": "Água - ATIVA | Esgoto - POTENCIAL",
    "Foto": "https://i.postimg.cc/NMqQSvBw/photo-111835071.jpg"
  },
  "1302749409": {
    "Nome": "ADILEA GONCALVES DA SILVA",
    "Codigo": "1302749409",
    "Endereco": "RUA ANTONIO ONOFRE SANTANA, N° 46 - ALTOS E BAIXOS",
    "Bairro": "PENHA",
    "Latitude": "-21.652193",
    "Longitude": "-41.75174",
    "N° HD": "A21F330710",
    "Categoria": "Residencial",
    "Situação Água/Esgoto": "Água - ATIVA | Esgoto - POTENCIAL",
    "Foto": "https://i.postimg.cc/Wzc6dzVf/photo-164028184-1.jpg"
  },
  "1302699338": {
    "Nome": "ADILIO PEREIRA DA SILVA",
    "Codigo": "1302699338",
    "Endereco": "RUA SAO SEBASTIAO, N° 244",
    "Bairro": "IPUCA",
    "Latitude": "-21.641613",
    "Longitude": "-41.737919",
    "N° HD": "A19L604217",
    "Categoria": "Residencial",
    "Situação Água/Esgoto": "Água - ATIVA | Esgoto - POTENCIAL",
    "Foto": "https://i.postimg.cc/zXJK69GW/photo-091628913.jpg"
  },
  "1301715030": {
    "Nome": "ADILON MOREIRA",
    "Codigo": "1301715030",
    "Endereco": "RUA C BAIRRO VILA OPERARIA, N° 5 - VILA OPERARIA",
    "Bairro": "PUREZA",
    "Latitude": "-21.584261",
    "Longitude": "-41.841037",
    "N° HD": "A23SG0500338",
    "Categoria": "Residencial",
    "Situação Água/Esgoto": "Água - ATIVA | Esgoto - POTENCIAL",
    "Foto": "https://i.postimg.cc/gj4XG22h/photo-113413606.jpg"
  },
  "1301944766": {
    "Nome": "ADILSON ADRIANO P STELLET",
    "Codigo": "1301944766",
    "Endereco": "RUA JOSE GONCALVES, N° 179 - CASA",
    "Bairro": "DR.JUAREZ S SILVA",
    "Latitude": "-21.654036",
    "Longitude": "-41.75433",
    "N° HD": "Y20C262180",
    "Categoria": "Residencial",
    "Situação Água/Esgoto": "Água - ATIVA | Esgoto - POTENCIAL",
    "Foto": "https://i.postimg.cc/NF2Sc54J/photo-095056214.jpg"
  },
  "1301886871": {
    "Nome": "ADILSON AZEVEDO DE SJUNIOR",
    "Codigo": "1301886871",
    "Endereco": "RUA MARIA LOURDES SOARES DIAS, N° 51 - CASA",
    "Bairro": "PENHA",
    "Latitude": "-21.652303",
    "Longitude": "-41.75024",
    "N° HD": "Y21C068533",
    "Categoria": "Residencial",
    "Situação Água/Esgoto": "Água - ATIVA | Esgoto - POTENCIAL",
    "Foto": "https://i.postimg.cc/zf39jthY/photo-092610889.jpg"
  },
  "1302073201": {
    "Nome": "ADILSON CBARRETO E OUTROS",
    "Codigo": "1302073201",
    "Endereco": "RUA TIRO DE GUERRA, N° 318 - ALTOS",
    "Bairro": "N DIVINEIA",
    "Latitude": "-21.639177",
    "Longitude": "-41.733373",
    "N° HD": "A25BR0002959",
    "Categoria": "Residencial",
    "Situação Água/Esgoto": "Água - ATIVA | Esgoto - ATIVA",
    "Foto": "https://i.postimg.cc/Y28zrpV8/photo-185343446.jpg"
  },
  "1302381808": {
    "Nome": "ADILSON DA CUNHA MURY",
    "Codigo": "1302381808",
    "Endereco": "RUA ABEL FRANCISCO PALAGAR, N° 13 - CASA 03 / 2 PAVIMENTO",
    "Bairro": "PARQUE TINOLA",
    "Latitude": "-21.658919",
    "Longitude": "-41.751564",
    "N° HD": "A10L065094",
    "Categoria": "Residencial",
    "Situação Água/Esgoto": "Água - ATIVA | Esgoto - POTENCIAL",
    "Foto": "https://i.postimg.cc/MK2fJgZt/photo-122951615.jpg"
  },
  "1302842680": {
    "Nome": "ADILSON DA SILVA ALVES ",
    "Codigo": "1302842680",
    "Endereco": "RUA ENEIA VIRGINIO DOS SANTOS, N° 3",
    "Bairro": "CRISTO REI",
    "Latitude": "-21.64027",
    "Longitude": "-41.746739",
    "N° HD": "A24LM0386522",
    "Categoria": "Residencial",
    "Situação Água/Esgoto": "Água - ATIVA | Esgoto - POTENCIAL",
    "Foto": "https://i.postimg.cc/Pq9rz8PK/photo-161354683.jpg"
  },
  "1301941599": {
    "Nome": "ADILSON DA SILVA LOUVIS ",
    "Codigo": "1301941599",
    "Endereco": "RUA GUMERCINDO SANTOS MACHADO, N° 94 - CASA",
    "Bairro": "VILA DOS COROADOS",
    "Latitude": "-21.638279",
    "Longitude": "-41.769695",
    "N° HD": "A24BR0436315",
    "Categoria": "Residencial",
    "Situação Água/Esgoto": "Água - ATIVA | Esgoto - POTENCIAL",
    "Foto": "https://i.postimg.cc/Pq9rz8PK/photo-161354683.jpg"
  },
  "1302106237": {
    "Nome": "ADILSON DA SILVA SOUZA",
    "Codigo": "1302106237",
    "Endereco": "RUA SANTA LUZIA, N° 268 - BAIXO",
    "Bairro": "IPUCA",
    "Latitude": "-21.641224",
    "Longitude": "-41.735743",
    "N° HD": "A22SG0221877",
    "Categoria": "Residencial",
    "Situação Água/Esgoto": "Água - ATIVA | Esgoto - POTENCIAL",
    "Foto": "https://i.postimg.cc/C5MtRcS2/photo-131324161.jpg"
  },
  "1301755130": {
    "Nome": "ADILSON DE MOURA STELLET",
    "Codigo": "1301755130",
    "Endereco": "RUA ANTONIO XAVIER MAIA, N° 97 - BAIXO V DIONEIA",
    "Bairro": "PENHA",
    "Latitude": "-21.652691",
    "Longitude": "-41.749361",
    "N° HD": "A24SG0603367",
    "Categoria": "Residencial",
    "Situação Água/Esgoto": "Água - ATIVA | Esgoto - POTENCIAL",
    "Foto": "https://i.postimg.cc/pV1kQWZr/photo-130740515.jpg"
  },
  "1301131009": {
    "Nome": "ADILSON DE MOURA STELLET",
    "Codigo": "1301131009",
    "Endereco": "RUA ANTONIO XAVIER MAIA, N° 214 - SOBRADO",
    "Bairro": "PENHA",
    "Latitude": "-21.65359",
    "Longitude": "-41.750375",
    "N° HD": "A24LM0386721",
    "Categoria": "Residencial",
    "Situação Água/Esgoto": "Água - ATIVA | Esgoto - POTENCIAL",
    "Foto": "https://i.postimg.cc/9QTr8bHK/photo-154602784.jpg"
  },
  "1302564223": {
    "Nome": "ADILSON DE OLIVEIRA GARCIA",
    "Codigo": "1302564223",
    "Endereco": "RUA TIRO DE GUERRA, N° 418 - CASA 2",
    "Bairro": "N DIVINEIA",
    "Latitude": "-21.638699",
    "Longitude": "-41.734214",
    "N° HD": "A25BR0002913",
    "Categoria": "Residencial",
    "Situação Água/Esgoto": "Água - ATIVA | Esgoto - ATIVA",
    "Foto": "https://i.postimg.cc/pVFYjg0M/photo-110338418.jpg"
  },
  "1300846419": {
    "Nome": "ADILSON DE SOUZA FREIXO",
    "Codigo": "1300846419",
    "Endereco": "RUA JOAO ALBINO PEREIRA, N° 95 - BARAO MACAUBAS",
    "Bairro": "PENHA",
    "Latitude": "-21.650753",
    "Longitude": "-41.749856",
    "N° HD": "A25BR0012336",
    "Categoria": "Residencial",
    "Situação Água/Esgoto": "Água - ATIVA | Esgoto - POTENCIAL",
    "Foto": "https://i.postimg.cc/W4dJvkCc/photo-112500486.jpg"
  },
  "1301511931": {
    "Nome": "ADILSON DIAS FELIX",
    "Codigo": "1301511931",
    "Endereco": "RUA VALENTIM PERES E PERES, N° 19",
    "Bairro": "PUREZA",
    "Latitude": "-21.593797",
    "Longitude": "-41.840758",
    "N° HD": "Y20C145873",
    "Categoria": "Residencial",
    "Situação Água/Esgoto": "Água - ATIVA | Esgoto - POTENCIAL",
    "Foto": "https://i.postimg.cc/ZRh3xqsk/photo-104635379.jpg"
  },
  "1302007912": {
    "Nome": "ADILSON DIAS FELIX",
    "Codigo": "1302007912",
    "Endereco": "RUA JACY NADER, N° 0 - TRAILLER",
    "Bairro": "PUREZA",
    "Latitude": "-21.592453",
    "Longitude": "-41.840747",
    "N° HD": "",
    "Categoria": "Comercial",
    "Situação Água/Esgoto": "Água - ATIVA | Esgoto - POTENCIAL",
    "Foto": "https://i.postimg.cc/pd1VPc8s/photo-162453784.jpg"
  },
  "1301803031": {
    "Nome": "ADILSON FERREIRA BONFIM",
    "Codigo": "1301803031",
    "Endereco": "RUA DA UNIAO, N° 27 - Q.CASA 05",
    "Bairro": "CHATUBA",
    "Latitude": "-21.655832",
    "Longitude": "-41.738798",
    "N° HD": "A24LM0386499",
    "Categoria": "Residencial",
    "Situação Água/Esgoto": "Água - ATIVA | Esgoto - POTENCIAL",
    "Foto": "https://i.postimg.cc/RZg4TpPv/photo-164841527.jpg"
  },
  "1300984541": {
    "Nome": "ADILSON GOMES CARNEIRO",
    "Codigo": "1300984541",
    "Endereco": "RUA JUVENIL GOMES DA SILVA, N° 72",
    "Bairro": "CENTRO",
    "Latitude": "-21.649995",
    "Longitude": "-41.75062",
    "N° HD": "A24SG0605027",
    "Categoria": "Residencial",
    "Situação Água/Esgoto": "Água - ATIVA | Esgoto - POTENCIAL",
    "Foto": "https://i.postimg.cc/XYJTnj80/photo-113559309.jpg"
  },
  "1301853644": {
    "Nome": "ADILSON JUSTINO LOPES",
    "Codigo": "1301853644",
    "Endereco": "RUA BARAO DE VILA FLOR, N° 286 - BARREIRO",
    "Bairro": "BARREIRO",
    "Latitude": "-21.646914",
    "Longitude": "-41.755358",
    "N° HD": "A23SG0500076",
    "Categoria": "Residencial",
    "Situação Água/Esgoto": "Água - ATIVA | Esgoto - POTENCIAL",
    "Foto": "https://i.postimg.cc/cHnv2GjR/photo-135030518.jpg"
  },
  "1301801553": {
    "Nome": "ADILSON MACHADO GUIMARAES",
    "Codigo": "1301801553",
    "Endereco": "RUA JUSTINO MOREIRA, N° 486 - A",
    "Bairro": "N DIVINEIA",
    "Latitude": "-21.638582",
    "Longitude": "-41.734535",
    "N° HD": "A24SG0840263",
    "Categoria": "Residencial",
    "Situação Água/Esgoto": "Água - ATIVA | Esgoto - ATIVA",
    "Foto": "https://i.postimg.cc/TwNXVKQQ/photo-093108051.jpg"
  },
  "1301998184": {
    "Nome": "ADILSON MENEZES GUIMARAES",
    "Codigo": "1301998184",
    "Endereco": "RUA EXP EIDUARTE DA S.PONTES, N° 0 - ADILSON",
    "Bairro": "PUREZA",
    "Latitude": "-21.598806",
    "Longitude": "-41.838417",
    "N° HD": "A23SG0637892",
    "Categoria": "Residencial",
    "Situação Água/Esgoto": "Água - ATIVA | Esgoto - POTENCIAL",
    "Foto": "https://i.postimg.cc/xTzcdQTB/photo-155804216-1.jpg"
  },
  "1302614931": {
    "Nome": "ADILSON PEREIRA COIMBRA",
    "Codigo": "1302614931",
    "Endereco": "RUA JOAO PEDRO, N° 30",
    "Bairro": "PENHA",
    "Latitude": "-21.656598",
    "Longitude": "-41.751121",
    "N° HD": "A25BR0012411",
    "Categoria": "Residencial",
    "Situação Água/Esgoto": "Água - ATIVA | Esgoto - POTENCIAL",
    "Foto": "https://i.postimg.cc/nzXQYDph/photo-184846444.jpg"
  },
  "1300845839": {
    "Nome": "ADILSON PERES PINTO",
    "Codigo": "1300845839",
    "Endereco": "RUA JACY NADER, N° 619",
    "Bairro": "PUREZA",
    "Latitude": "-21.58979",
    "Longitude": "-41.842912",
    "N° HD": "A20C041167",
    "Categoria": "Residencial",
    "Situação Água/Esgoto": "Água - ATIVA | Esgoto - POTENCIAL",
    "Foto": "https://i.postimg.cc/k4SggF7K/photo-111901753.jpg"
  },
  "1301578340": {
    "Nome": "ADILSON PERES PINTO",
    "Codigo": "1301578340",
    "Endereco": "RUA JACY NADER, N° 619 - /B",
    "Bairro": "PUREZA",
    "Latitude": "-21.589729",
    "Longitude": "-41.842809",
    "N° HD": "A22SG0628894",
    "Categoria": "Comercial",
    "Situação Água/Esgoto": "Água - ATIVA | Esgoto - POTENCIAL",
    "Foto": "https://i.postimg.cc/JzRx3Pg7/photo-121019969.jpg"
  },
  "1302154141": {
    "Nome": "ADILSON PIMENTEL MOREIRA",
    "Codigo": "1302154141",
    "Endereco": "RUA GERALDO LUSITANO MAIA, N° 96 - CASA",
    "Bairro": "PARQUE TINOLA",
    "Latitude": "-21.654697",
    "Longitude": "-41.74935",
    "N° HD": "A22SG0221816",
    "Categoria": "Residencial",
    "Situação Água/Esgoto": "Água - ATIVA | Esgoto - POTENCIAL",
    "Foto": "https://i.postimg.cc/8khLyLL7/photo-091603841.jpg"
  },
  "1302464634": {
    "Nome": "ADILSON SILVEIRA DE ABREU",
    "Codigo": "1302464634",
    "Endereco": "RUA JOAO BATISTA MAIA, N° 306",
    "Bairro": "VILA DOS COROADOS",
    "Latitude": "-21.635187",
    "Longitude": "-41.767398",
    "N° HD": "A23SG0531248",
    "Categoria": "Residencial",
    "Situação Água/Esgoto": "Água - ATIVA | Esgoto - POTENCIAL",
    "Foto": "https://i.postimg.cc/rFw3MyVN/photo-125720092.jpg"
  },
  "1302616013": {
    "Nome": "ADILSON VIANA PEREIRA",
    "Codigo": "1302616013",
    "Endereco": "RUA ANTONIO XAVIER MAIA, N° 2000",
    "Bairro": "PENHA",
    "Latitude": "-21.660295",
    "Longitude": "-41.758614",
    "N° HD": "A24BR0474095",
    "Categoria": "Residencial",
    "Situação Água/Esgoto": "Água - ATIVA | Esgoto - POTENCIAL",
    "Foto": "https://i.postimg.cc/pTd1Qx0B/photo-095736078.jpg"
  },
  "1301666489": {
    "Nome": "ADINEA MONTEIRO CORDEIRO",
    "Codigo": "1301666489",
    "Endereco": "RUA JOSE FORMIGA, N° 25 - VALÃO",
    "Bairro": "CENTRO",
    "Latitude": "-21.649468",
    "Longitude": "-41.741717",
    "N° HD": "Y18C073263",
    "Categoria": "Residencial",
    "Situação Água/Esgoto": "Água - ATIVA | Esgoto - POTENCIAL",
    "Foto": "https://i.postimg.cc/T3zDqcCN/photo-105658067.jpg"
  },
  "1301801561": {
    "Nome": "ADIVALDO BARBOZA MENEZES",
    "Codigo": "1301801561",
    "Endereco": "RUA ALSALGA TITO DE AZEVEDO, N° 750",
    "Bairro": "N DIVINEIA",
    "Latitude": "-21.63812",
    "Longitude": "-41.732524",
    "N° HD": "A22SG0424493",
    "Categoria": "Residencial",
    "Situação Água/Esgoto": "Água - ATIVA | Esgoto - ATIVA",
    "Foto": "https://i.postimg.cc/nV5xRwfk/photo-100636392-1.jpg"
  },
  "1301825924": {
    "Nome": "ADLA DE SOUZA GENTIL",
    "Codigo": "1301825924",
    "Endereco": "RUA VOLUNTARIOS DA PATRIA, N° 44 - CENTRO",
    "Bairro": "CENTRO",
    "Latitude": "-21.645045",
    "Longitude": "-41.747847",
    "N° HD": "Y20C152885",
    "Categoria": "Residencial",
    "Situação Água/Esgoto": "Água - ATIVA | Esgoto - POTENCIAL",
    "Foto": "https://i.postimg.cc/ZRH8Yd4b/photo-09091171.jpg"
  },
  "1301427962": {
    "Nome": "ADMAIR JOSE M DE FARIA",
    "Codigo": "1301427962",
    "Endereco": "RUA SAO JOSE BAIRRO IPUCA, N° 174",
    "Bairro": "IPUCA",
    "Latitude": "-21.639364",
    "Longitude": "-41.735422",
    "N° HD": "A25LM0309066",
    "Categoria": "Residencial",
    "Situação Água/Esgoto": "Água - ATIVA | Esgoto - ATIVA",
    "Foto": "https://i.postimg.cc/mDjnxknM/photo-164219039.jpg"
  },
  "1300845959": {
    "Nome": "ADMO CORREA PINHEIRO",
    "Codigo": "1300845959",
    "Endereco": "RUA IRANY GUIMARAES, N° 808",
    "Bairro": "PUREZA",
    "Latitude": "-21.582078",
    "Longitude": "-41.838256",
    "N° HD": "A23SG0735746",
    "Categoria": "Residencial",
    "Situação Água/Esgoto": "Água - ATIVA | Esgoto - POTENCIAL",
    "Foto": "https://i.postimg.cc/qRN1Fw8f/photo-143536353.jpg"
  },
  "1302158081": {
    "Nome": "ADOMILSON ALVES DA SILVA",
    "Codigo": "1302158081",
    "Endereco": "RUA JOAO GOMES DA SILVA, N° 228 - ALTOS",
    "Bairro": "VILA DOS COROADOS",
    "Latitude": "-21.63927",
    "Longitude": "-41.764799",
    "N° HD": "Y21C067121",
    "Categoria": "Residencial",
    "Situação Água/Esgoto": "Água - ATIVA | Esgoto - POTENCIAL",
    "Foto": "https://i.postimg.cc/QdpCQZPw/photo-094550602.jpg"
  },
  "1300846773": {
    "Nome": "ADRIANA ALMEIDA DA CONCEICAO KOPKE",
    "Codigo": "1300846773",
    "Endereco": "RUA FREI VITORIO, N° 657",
    "Bairro": "CENTRO",
    "Latitude": "-21.649898",
    "Longitude": "-41.746751",
    "N° HD": "Y20C082249",
    "Categoria": "Residencial",
    "Situação Água/Esgoto": "Água - ATIVA | Esgoto - POTENCIAL",
    "Foto": "https://i.postimg.cc/NMQdsYqc/photo-151042642.jpg"
  },
  "1302144544": {
    "Nome": "ADRIANA ALMEIDA FARIA AZEREDO",
    "Codigo": "1302144544",
    "Endereco": "RUA CIRINO AGUIAR, N° 20",
    "Bairro": "PUREZA",
    "Latitude": "-21.581613",
    "Longitude": "-41.838997",
    "N° HD": "A23SG0500172",
    "Categoria": "Residencial",
    "Situação Água/Esgoto": "Água - ATIVA | Esgoto - POTENCIAL",
    "Foto": "https://i.postimg.cc/9QtTW9WD/photo-12374674.jpg"
  },
  "1302739079": {
    "Nome": "ADRIANA AMARAL DO C BARRETO",
    "Codigo": "1302739079",
    "Endereco": "RUA JOSE DO EGITO, N° 4 - CASA",
    "Bairro": "N DIVINEIA",
    "Latitude": "-21.63571",
    "Longitude": "-41.731877",
    "N° HD": "A20L709309",
    "Categoria": "Residencial",
    "Situação Água/Esgoto": "Água - ATIVA | Esgoto - POTENCIAL",
    "Foto": "https://i.postimg.cc/9f23vrbX/photo-180414442.jpg"
  },
  "1302001067": {
    "Nome": "ADRIANA BARCELOS LIMA DSANTOS",
    "Codigo": "1302001067",
    "Endereco": "RUA JOSE SIMAO, N° 61",
    "Bairro": "MONTESE",
    "Latitude": "-21.650776",
    "Longitude": "-41.740359",
    "N° HD": "Y21C043126",
    "Categoria": "Residencial",
    "Situação Água/Esgoto": "Água - ATIVA | Esgoto - POTENCIAL",
    "Foto": "https://i.postimg.cc/nhJptRct/photo-134014351.jpg"
  },
  "1301875789": {
    "Nome": "ADRIANA BERAL SANTANA PEIXOTO",
    "Codigo": "1301875789",
    "Endereco": "RUA JOAQUIM JOSE MARTINS, N° 195 - IPUCA",
    "Bairro": "IPUCA",
    "Latitude": "-21.640427",
    "Longitude": "-41.740828",
    "N° HD": "A23SG0379326",
    "Categoria": "Residencial",
    "Situação Água/Esgoto": "Água - ATIVA | Esgoto - POTENCIAL",
    "Foto": "https://i.postimg.cc/G20jMyxz/photo-130958424.jpg"
  },
  "1302764909": {
    "Nome": "ADRIANA BUENO BENTO DIAS",
    "Codigo": "1302764909",
    "Endereco": "RUA DO TEMPLO, N° 105 - -FASE 2 - AUSENTE",
    "Bairro": "CHATUBA",
    "Latitude": "-21.654406",
    "Longitude": "-41.741949",
    "N° HD": "A24SG0804905",
    "Categoria": "Residencial",
    "Situação Água/Esgoto": "Água - ATIVA | Esgoto - POTENCIAL",
    "Foto": "https://i.postimg.cc/vZg9pmBK/photo-17395685.jpg"
  },
  "1301218510": {
    "Nome": "ADRIANA CARDOSO LOPES",
    "Codigo": "1301218510",
    "Endereco": "RUA NELSON, N° 13 - CASA",
    "Bairro": "PENHA",
    "Latitude": "-21.652061",
    "Longitude": "-41.749508",
    "N° HD": "A24SG0840207",
    "Categoria": "Residencial",
    "Situação Água/Esgoto": "Água - ATIVA | Esgoto - POTENCIAL",
    "Foto": "https://i.postimg.cc/44c3khbV/photo-135919843.jpg"
  },
  "1301919865": {
    "Nome": "ADRIANA CORREA DOS SANTOS",
    "Codigo": "1301919865",
    "Endereco": "RUA LOUREIRO, N° 623 - FDS/IPUCA",
    "Bairro": "IPUCA",
    "Latitude": "-21.642061",
    "Longitude": "-41.737929",
    "N° HD": "A24SG0804893",
    "Categoria": "Residencial",
    "Situação Água/Esgoto": "Água - ATIVA | Esgoto - POTENCIAL",
    "Foto": "https://i.postimg.cc/DZBP7MKp/photo-143303994.jpg"
  },
  "1302843169": {
    "Nome": "ADRIANA COUTINHO DE FREITAS",
    "Codigo": "1302843169",
    "Endereco": "RUA B BAIRRO VILA OPERARIA, N° 4",
    "Bairro": "PUREZA",
    "Latitude": "-21.5827688",
    "Longitude": "-41.8397673",
    "N° HD": "A24LM0386856",
    "Categoria": "Residencial",
    "Situação Água/Esgoto": "Água - ATIVA | Esgoto - POTENCIAL",
    "Foto": "https://i.postimg.cc/kGR6L1Mb/photo-171609822.jpg"
  },
  "1301671149": {
    "Nome": "ADRIANA DA SILVA RCASANOVA",
    "Codigo": "1301671149",
    "Endereco": "RUA CICINIO DE SOUZA FARIA, N° 261 - ALTOS S.VICENTE",
    "Bairro": "SÃO VICENTE",
    "Latitude": "-21.650852",
    "Longitude": "-41.744884",
    "N° HD": "",
    "Categoria": "Residencial",
    "Situação Água/Esgoto": "Água - ATIVA | Esgoto - POTENCIAL",
    "Foto": "https://i.postimg.cc/J4bcn0mB/photo-121735497.jpg"
  },
  "1301707439": {
    "Nome": "ADRIANA DE CARVALHO CRUZ FERNANDES DA SILVA",
    "Codigo": "1301707439",
    "Endereco": "RUA SANTA LUCIA, N° 49 - CRISTO REY",
    "Bairro": "CRISTO REI",
    "Latitude": "-21.638607",
    "Longitude": "-41.755116",
    "N° HD": "A23SG0736217",
    "Categoria": "Residencial",
    "Situação Água/Esgoto": "Água - ATIVA | Esgoto - POTENCIAL",
    "Foto": "https://i.postimg.cc/SxPsbL5L/photo-164954072.jpg"
  },
  "1301675355": {
    "Nome": "ADRIANA DE JESUS BARRETO SEMI",
    "Codigo": "1301675355",
    "Endereco": "RUA ALZIRO NOVAES, N° 373 - SAO VICENTE",
    "Bairro": "CHATUBA",
    "Latitude": "-21.655053",
    "Longitude": "-41.741666",
    "N° HD": "",
    "Categoria": "Residencial",
    "Situação Água/Esgoto": "Água - DESLIGADA A PEDIDO | Esgoto - POTENCIAL",
    "Foto": "https://i.postimg.cc/4NSZYf5s/photo-155057715.jpg"
  },
  "1302849156": {
    "Nome": "ADRIANA DE JESUS PIRES",
    "Codigo": "1302849156",
    "Endereco": "RUA JOVENTINO COSTA, N° 1423 - CASA",
    "Bairro": "VILA DOS COROADOS",
    "Latitude": "",
    "Longitude": "",
    "N° HD": "A24SG0804916",
    "Categoria": "Residencial",
    "Situação Água/Esgoto": "Água - ATIVA | Esgoto - POTENCIAL",
    "Foto": "https://i.postimg.cc/59rkv6Z7/photo-161117565.jpg"
  },
  "1302262970": {
    "Nome": "ADRIANA DE OLIVEIRA COSTA MAIA",
    "Codigo": "1302262970",
    "Endereco": "RUA ENEIA VIRGINIO DOS SANTOS, N° 215",
    "Bairro": "CRISTO REI",
    "Latitude": "-21.640542",
    "Longitude": "-41.746209",
    "N° HD": "A25BR0002932",
    "Categoria": "Residencial",
    "Situação Água/Esgoto": "Água - ATIVA | Esgoto - POTENCIAL",
    "Foto": "https://i.postimg.cc/gkqS7Nx5/photo-103514329.jpg"
  },
  "1302762970": {
    "Nome": "ADRIANA DE SOUZA FERREIRA",
    "Codigo": "1302762970",
    "Endereco": "RUA SAO VICENTE , N° 280",
    "Bairro": "CHATUBA",
    "Latitude": "-21.654041",
    "Longitude": "-41.741505",
    "N° HD": "A22SG0424188",
    "Categoria": "Residencial",
    "Situação Água/Esgoto": "Água - ATIVA | Esgoto - POTENCIAL",
    "Foto": "https://i.postimg.cc/SRz088V4/photo-122119483.jpg"
  },
  "1301921048": {
    "Nome": "ADRIANA DE SOUZA SERAPIAO CABRAL",
    "Codigo": "1301921048",
    "Endereco": "RUA TEN VICTOR B COELHO, N° 33",
    "Bairro": "MONTESE",
    "Latitude": "-21.653458",
    "Longitude": "-41.740249",
    "N° HD": "Y21C002068",
    "Categoria": "Residencial",
    "Situação Água/Esgoto": "Água - ATIVA | Esgoto - POTENCIAL",
    "Foto": "https://i.postimg.cc/NF06P7Zh/photo-165723172.jpg"
  },
  "1302170759": {
    "Nome": "ADRIANA DOS SANTOS GRANADO",
    "Codigo": "1302170759",
    "Endereco": "RUA MOACYR ROCHA, N° 35",
    "Bairro": "IPUCA",
    "Latitude": "-21.641665",
    "Longitude": "-41.734115",
    "N° HD": "Y20C120846",
    "Categoria": "Residencial",
    "Situação Água/Esgoto": "Água - ATIVA | Esgoto - ATIVA",
    "Foto": "https://i.postimg.cc/FKBkH5B6/photo-090837504.jpg"
  },
  "1302301554": {
    "Nome": "ADRIANA ESCALA RIBEIRO TORRES",
    "Codigo": "1302301554",
    "Endereco": "RUA ZENY VALENTIM, N° 54",
    "Bairro": "BARREIRO",
    "Latitude": "-21.647789",
    "Longitude": "-41.755398",
    "N° HD": "A24SG0603299",
    "Categoria": "Residencial",
    "Situação Água/Esgoto": "Água - ATIVA | Esgoto - POTENCIAL",
    "Foto": "https://i.postimg.cc/g2Mngbm0/photo-135059053.jpg"
  },
  "1302385254": {
    "Nome": "ADRIANA ESCALA RIBEIRO TORRES",
    "Codigo": "1302385254",
    "Endereco": "RUA ZENY VALENTIM, N° 58",
    "Bairro": "BARREIRO",
    "Latitude": "-21.647689",
    "Longitude": "-41.755252",
    "N° HD": "A24BR0435938",
    "Categoria": "Residencial",
    "Situação Água/Esgoto": "Água - ATIVA | Esgoto - POTENCIAL",
    "Foto": "https://i.postimg.cc/TYtd6jS7/photo-160958425.jpg"
  },
  "1302425328": {
    "Nome": "ADRIANA ESCALA RIBEIRO TORRES",
    "Codigo": "1302425328",
    "Endereco": "RUA ZENY VALENTIM, N° 56 - PORAO",
    "Bairro": "BARREIRO",
    "Latitude": "-21.647571",
    "Longitude": "-41.755026",
    "N° HD": "A22SG0424384",
    "Categoria": "Residencial",
    "Situação Água/Esgoto": "Água - ATIVA | Esgoto - POTENCIAL",
    "Foto": "https://i.postimg.cc/tJmMrgS5/photo-105224023.jpg"
  },
  "1300847187": {
    "Nome": "ADRIANA F ABREU INACIO E OUTR",
    "Codigo": "1300847187",
    "Endereco": "RUA ANTONIO XAVIER MAIA, N° 154 - A",
    "Bairro": "PENHA",
    "Latitude": "-21.652187",
    "Longitude": "-41.749063",
    "N° HD": "A24BR0436441",
    "Categoria": "Residencial",
    "Situação Água/Esgoto": "Água - ATIVA | Esgoto - POTENCIAL",
    "Foto": "https://i.postimg.cc/mkcwgyjY/photo-115613261-1.jpg"
  },
  "1301130986": {
    "Nome": "ADRIANA F ABREU INACIO E OUTR",
    "Codigo": "1301130986",
    "Endereco": "RUA ANTONIO XAVIER MAIA, N° 154",
    "Bairro": "PENHA",
    "Latitude": "-21.65208",
    "Longitude": "-41.748938",
    "N° HD": "A22SG0424902",
    "Categoria": "Comercial",
    "Situação Água/Esgoto": "Água - ATIVA | Esgoto - POTENCIAL",
    "Foto": "https://i.postimg.cc/Lsf46Qdj/photo-102416869.jpg"
  },
  "1301879298": {
    "Nome": "ADRIANA FRANCO DE ABREU",
    "Codigo": "1301879298",
    "Endereco": "RUA IGUALDADE, N° 1150 - CEMITERIO",
    "Bairro": "IGUALDADE",
    "Latitude": "-21.653302",
    "Longitude": "-41.731272",
    "N° HD": "Y20C261007",
    "Categoria": "Residencial",
    "Situação Água/Esgoto": "Água - ATIVA | Esgoto - POTENCIAL",
    "Foto": "https://i.postimg.cc/448GZRKr/photo-090237286.jpg"
  },
  "1301838643": {
    "Nome": "ADRIANA FRANCO DE ABREU",
    "Codigo": "1301838643",
    "Endereco": "RUA PARANHOS, N° 713 - CENTRO",
    "Bairro": "CENTRO",
    "Latitude": "-21.650376",
    "Longitude": "-41.747934",
    "N° HD": "A24SG0238529",
    "Categoria": "Residencial",
    "Situação Água/Esgoto": "Água - ATIVA | Esgoto - POTENCIAL",
    "Foto": "https://i.postimg.cc/R0myKg67/photo-114839261.jpg"
  },
  "1302103354": {
    "Nome": "ADRIANA FRANCO DE ABREU",
    "Codigo": "1302103354",
    "Endereco": "RUA CEL JOAO SANCHES, N° 273 - APTO 104",
    "Bairro": "CENTRO",
    "Latitude": "-21.649214",
    "Longitude": "-41.745093",
    "N° HD": "Y20C032383",
    "Categoria": "Residencial",
    "Situação Água/Esgoto": "Água - ATIVA | Esgoto - POTENCIAL",
    "Foto": "https://i.postimg.cc/zBcxt7BP/photo-144425972.jpg"
  },
  "1302759376": {
    "Nome": "ADRIANA GOMES BORGES NACOUR",
    "Codigo": "1302759376",
    "Endereco": "RUA DA AMIZADE, N° 17 - CASA",
    "Bairro": "CHATUBA",
    "Latitude": "-21.655969",
    "Longitude": "-41.738434",
    "N° HD": "A24SG0648035",
    "Categoria": "Residencial",
    "Situação Água/Esgoto": "Água - ATIVA | Esgoto - POTENCIAL",
    "Foto": "https://i.postimg.cc/YqwsJXRJ/photo-084932995.jpg"
  },
  "1302831586": {
    "Nome": "ADRIANA GOUDARD DE ALMEIDA ANACLETO",
    "Codigo": "1302831586",
    "Endereco": "RUA JOSE JORGE B ANACLETO, N° 323 - LADO",
    "Bairro": "PUREZA",
    "Latitude": "-21.584952",
    "Longitude": "-41.841527",
    "N° HD": "A24SG0603971",
    "Categoria": "Residencial",
    "Situação Água/Esgoto": "Água - ATIVA | Esgoto - POTENCIAL",
    "Foto": "https://i.postimg.cc/q7STnsr4/photo-18291806.jpg"
  },
  "1302175840": {
    "Nome": "ADRIANA LIMA LOPES",
    "Codigo": "1302175840",
    "Endereco": "RUA IPE ROXO, N° 12",
    "Bairro": "PARQUE VILA ANGELIM",
    "Latitude": "-21.603433",
    "Longitude": "-41.841685",
    "N° HD": "Y20C112600",
    "Categoria": "Residencial",
    "Situação Água/Esgoto": "Água - ATIVA | Esgoto - POTENCIAL",
    "Foto": "https://i.postimg.cc/rwpXPnFq/photo-140839833.jpg"
  },
  "1301611458": {
    "Nome": "Adriana Lopes P da Silva",
    "Codigo": "1301611458",
    "Endereco": "RUA PROJETADA, N° 106",
    "Bairro": "PUREZA",
    "Latitude": "-21.582879",
    "Longitude": "-41.840248",
    "N° HD": "Y20C175685",
    "Categoria": "Residencial",
    "Situação Água/Esgoto": "Água - ATIVA | Esgoto - POTENCIAL",
    "Foto": "https://i.postimg.cc/HL7NqfG1/photo-121852824.jpg"
  },
  "1302677298": {
    "Nome": "Adriana Lopes P da Silva",
    "Codigo": "1302677298",
    "Endereco": "RUA PROJETADA, N° 106 - ALTOS",
    "Bairro": "PUREZA",
    "Latitude": "-21.582767",
    "Longitude": "-41.840137",
    "N° HD": "A20F040789",
    "Categoria": "Residencial",
    "Situação Água/Esgoto": "Água - ATIVA | Esgoto - POTENCIAL",
    "Foto": "https://i.postimg.cc/HL7NqfG1/photo-121852824.jpg"
  },
  "1302759258": {
    "Nome": "ADRIANA MOTA DA SILVA",
    "Codigo": "1302759258",
    "Endereco": "RUA TRIUNFO, N° 20 - ANTIGO 74",
    "Bairro": "CHATUBA",
    "Latitude": "-21.651003",
    "Longitude": "-41.7449",
    "N° HD": "A24SG0804771",
    "Categoria": "Residencial",
    "Situação Água/Esgoto": "Água - ATIVA | Esgoto - POTENCIAL",
    "Foto": "https://i.postimg.cc/RV6wL9wm/photo-094307936.jpg"
  },
  "1302765152": {
    "Nome": "ADRIANA NANDES MALAFAIA",
    "Codigo": "1302765152",
    "Endereco": "RUA SEBASTIAO PONTES, N° 7 - ANTIGO 28",
    "Bairro": "SÃO VICENTE",
    "Latitude": "-21.653677",
    "Longitude": "-41.744265",
    "N° HD": "A24SG0600541",
    "Categoria": "Residencial",
    "Situação Água/Esgoto": "Água - ATIVA | Esgoto - POTENCIAL",
    "Foto": "https://i.postimg.cc/y65Zd5tb/photo-163903798.jpg"
  },
  "1302830455": {
    "Nome": "ADRIANA NANDES MALAFAIA",
    "Codigo": "1302830455",
    "Endereco": "RUA GUSTAVO JOSE DE SOUZA, N° 35 - ANTIGO 292",
    "Bairro": "SÃO VICENTE",
    "Latitude": "-21.654474",
    "Longitude": "-41.741927",
    "N° HD": "A24SG0603363",
    "Categoria": "Residencial",
    "Situação Água/Esgoto": "Água - ATIVA | Esgoto - POTENCIAL",
    "Foto": "https://i.postimg.cc/43dcngfj/photo-152638472.jpg"
  },
  "1302841635": {
    "Nome": "ADRIANA NUNES ALVES DA SILVA ",
    "Codigo": "1302841635",
    "Endereco": "RUA ANTONIO CAMPISTA, N° 6",
    "Bairro": "CHATUBA",
    "Latitude": "-21.655851",
    "Longitude": "-41.740821",
    "N° HD": "A24LM0386576",
    "Categoria": "Residencial",
    "Situação Água/Esgoto": "Água - ATIVA | Esgoto - POTENCIAL",
    "Foto": "https://i.postimg.cc/43mKsQwg/photo-125035429-1.jpg"
  },
  "1301013407": {
    "Nome": "ADRIANA NUNES PEREIRA",
    "Codigo": "1301013407",
    "Endereco": "RUA FREI ANGELO, N° 542",
    "Bairro": "CENTRO",
    "Latitude": "-21.649116",
    "Longitude": "-41.74834",
    "N° HD": "Y20C271666",
    "Categoria": "Residencial",
    "Situação Água/Esgoto": "Água - ATIVA | Esgoto - POTENCIAL",
    "Foto": "https://i.postimg.cc/vmFBww1W/photo-084607685.jpg"
  },
  "1302563416": {
    "Nome": "ADRIANA PAINS DE CARVALHO",
    "Codigo": "1302563416",
    "Endereco": "RUA ALSALGA TITO DE AZEVEDO, N° 909 - A",
    "Bairro": "N DIVINEIA",
    "Latitude": "-21.636773",
    "Longitude": "-41.731623",
    "N° HD": "A23SG0531050",
    "Categoria": "Residencial",
    "Situação Água/Esgoto": "Água - ATIVA | Esgoto - POTENCIAL",
    "Foto": "https://i.postimg.cc/mr80NQGt/photo-161747308.jpg"
  },
  "1302762450": {
    "Nome": "ADRIANA PAULA DE SOUZA OLIVEIRA ",
    "Codigo": "1302762450",
    "Endereco": "RUA REIS MAGOS, N° 5 - CASA",
    "Bairro": "CHATUBA",
    "Latitude": "-21.650913",
    "Longitude": "-41.744879",
    "N° HD": "A24SG0805048",
    "Categoria": "Residencial",
    "Situação Água/Esgoto": "Água - ATIVA | Esgoto - POTENCIAL",
    "Foto": "https://i.postimg.cc/wMVfgzT3/photo-104549486.jpg"
  },
  "1302764375": {
    "Nome": "ADRIANA SANTOS DE SOUZA",
    "Codigo": "1302764375",
    "Endereco": "RUA FERNANDO FRANCO, N° 80 - CASA ALTOS",
    "Bairro": "CHATUBA",
    "Latitude": "-21.655528",
    "Longitude": "-41.737812",
    "N° HD": "A24BR0435898",
    "Categoria": "Residencial",
    "Situação Água/Esgoto": "Água - ATIVA | Esgoto - POTENCIAL",
    "Foto": "https://i.postimg.cc/Y2nQKjtY/photo-094802135.jpg"
  },
  "1302202814": {
    "Nome": "ADRIANA SILVA VIEIRA SILVA",
    "Codigo": "1302202814",
    "Endereco": "RUA OLGA RODRIGUES QUINTAN, N° 60",
    "Bairro": "CHATUBA",
    "Latitude": "-21.654992",
    "Longitude": "-41.73812",
    "N° HD": "A24BR0436438",
    "Categoria": "Residencial",
    "Situação Água/Esgoto": "Água - ATIVA | Esgoto - POTENCIAL",
    "Foto": "https://i.postimg.cc/851w0XLT/photo-223949089-2.jpg"
  },
  "1301551278": {
    "Nome": "ADRIANE CRISTINA B BENJAMIM",
    "Codigo": "1301551278",
    "Endereco": "RUA SANTO AMARO, N° 700 - IPUCA",
    "Bairro": "IPUCA",
    "Latitude": "-21.639172",
    "Longitude": "-41.753496",
    "N° HD": "A24SG0648038",
    "Categoria": "Residencial",
    "Situação Água/Esgoto": "Água - ATIVA | Esgoto - POTENCIAL",
    "Foto": "https://i.postimg.cc/G36gcKCx/photo-10283029.jpg"
  },
  "1301487588": {
    "Nome": "ADRIANE CRISTINA B BENJAMIM",
    "Codigo": "1301487588",
    "Endereco": "RUA SANTO AMARO, N° 702 - IPUCA",
    "Bairro": "IPUCA",
    "Latitude": "-21.64015",
    "Longitude": "-41.751423",
    "N° HD": "",
    "Categoria": "Residencial",
    "Situação Água/Esgoto": "Água - DESLIGADA A PEDIDO | Esgoto - POTENCIAL",
    "Foto": "https://i.postimg.cc/qMLKmBj6/photo-12022306.jpg"
  },
  "1302819383": {
    "Nome": "ADRIANE DOS SANTOS PASSARINHO",
    "Codigo": "1302819383",
    "Endereco": "RUA CICINIO DE SOUZA FARIA, N° 308 - 308 C",
    "Bairro": "SÃO VICENTE",
    "Latitude": "-21.653587",
    "Longitude": "-41.741654",
    "N° HD": "A23SG0637818",
    "Categoria": "Residencial",
    "Situação Água/Esgoto": "Água - ATIVA | Esgoto - POTENCIAL",
    "Foto": "https://i.postimg.cc/P5yBrDKf/photo-125506045.jpg"
  },